"HUC12","HUC_12_NAME","HUC10","HUC_10_NAME","HUC8","HUC_8_NAME","Latitude","Longitude"
170200010611,"Coulee Dam-Franklin D Roosevelt Lake",1702000106,"Hawk Creek-Franklin D Roosevelt Lake",17020001,"Franklin D. Roosevelt Lake",47.954432160106,-118.878389256349
170200050101,"Upper Nespelem River",1702000501,"Nespelem River",17020005,"Chief Joseph",48.3186939436243,-118.910542414388
170200050102,"Stepstone Creek",1702000501,"Nespelem River",17020005,"Chief Joseph",48.3605637514343,-118.992573998029
170200050103,"Middle Nespelem River",1702000501,"Nespelem River",17020005,"Chief Joseph",48.2865897531631,-118.986974018518
170200050104,"Mill Creek",1702000501,"Nespelem River",17020005,"Chief Joseph",48.2662177364107,-119.044172307877
170200050105,"Upper Little Nespelem River",1702000501,"Nespelem River",17020005,"Chief Joseph",48.242188013943,-118.850521502784
170200050106,"Middle Little Nespelem River",1702000501,"Nespelem River",17020005,"Chief Joseph",48.1629490894588,-118.850872778295
170200050107,"Lower Little Nespelem River",1702000501,"Nespelem River",17020005,"Chief Joseph",48.1171066046678,-118.89186042014
170200050108,"Lower Nespelem River",1702000501,"Nespelem River",17020005,"Chief Joseph",48.1845479974305,-118.987133390594
170200050201,"Peter Dan Creek",1702000502,"Coyote Creek-Columbia River",17020005,"Chief Joseph",48.0128283998175,-118.87781910405
170200050202,"Buffalo Lake",1702000502,"Coyote Creek-Columbia River",17020005,"Chief Joseph",48.0590625948717,-118.881292773429
170200050203,"Sanderson Creek-Columbia River",1702000502,"Coyote Creek-Columbia River",17020005,"Chief Joseph",48.0009689469116,-119.005308557798
170200050204,"Moses Creek-Columbia River",1702000502,"Coyote Creek-Columbia River",17020005,"Chief Joseph",48.0767973893243,-119.014629027146
170200050205,"Coyote Creek",1702000502,"Coyote Creek-Columbia River",17020005,"Chief Joseph",48.2086147537729,-119.122158751957
170200050206,"China Creek",1702000502,"Coyote Creek-Columbia River",17020005,"Chief Joseph",48.0892253564417,-119.129422671934
170200050207,"Strahl Canyon",1702000502,"Coyote Creek-Columbia River",17020005,"Chief Joseph",48.0598820735283,-119.184237509982
170200050208,"Hopkins Canyon-Columbia River",1702000502,"Coyote Creek-Columbia River",17020005,"Chief Joseph",48.1563942331547,-119.145898273702
170200050209,"Benson Spring",1702000502,"Coyote Creek-Columbia River",17020005,"Chief Joseph",48.1748962814429,-119.346055169116
170200050210,"Granite Rapids-Columbia River",1702000502,"Coyote Creek-Columbia River",17020005,"Chief Joseph",48.1243070228118,-119.262143495199
170200050401,"Trefry Creek-Columbia River",1702000504,"Tumwater Creek-Columbia River",17020005,"Chief Joseph",48.0544750308984,-119.297338088625
170200050402,"Tumwater Creek",1702000504,"Tumwater Creek-Columbia River",17020005,"Chief Joseph",48.1521115205647,-119.445011896081
170200050403,"Eagle Rapids-Columbia River",1702000504,"Tumwater Creek-Columbia River",17020005,"Chief Joseph",48.0709035141101,-119.430511476911
170200050404,"Jordan Creek-Columbia River",1702000504,"Tumwater Creek-Columbia River",17020005,"Chief Joseph",48.0467540669693,-119.556008436646
170200050405,"Dry Creek-Columbia River",1702000504,"Tumwater Creek-Columbia River",17020005,"Chief Joseph",48.063748705354,-119.668228344897
170200050501,"Starzman Lake",1702000505,"Swamp Creek-Columbia River",17020005,"Chief Joseph",48.1781384710774,-119.764561353404
170200050502,"Swamp Creek",1702000505,"Swamp Creek-Columbia River",17020005,"Chief Joseph",48.2140737960638,-119.857767316236
170200050503,"Indian Dan Creek",1702000505,"Swamp Creek-Columbia River",17020005,"Chief Joseph",48.1283001404886,-119.868227854606
170200050504,"Watson Draw-Columbia River",1702000505,"Swamp Creek-Columbia River",17020005,"Chief Joseph",48.0790726064331,-119.833353643018
170200050505,"Lake Pateros-Columbia River",1702000505,"Swamp Creek-Columbia River",17020005,"Chief Joseph",47.991307322649,-119.855165470692
170200050506,"Antoine Creek",1702000505,"Swamp Creek-Columbia River",17020005,"Chief Joseph",47.9665495977192,-119.990107584013
170200050507,"Long Draw-Columbia River",1702000505,"Swamp Creek-Columbia River",17020005,"Chief Joseph",47.8846809595307,-119.915140200472
170200060101,"Nine Mile Creek-Okanogan River",1702000601,"Antoine Creek-Okanogan River",17020006,"Okanogan",48.9807963572324,-119.371042253385
170200060102,"Tonasket Creek",1702000601,"Antoine Creek-Okanogan River",17020006,"Okanogan",48.9240334103152,-119.265186526913
170200060104,"Whitestone Creek",1702000601,"Antoine Creek-Okanogan River",17020006,"Okanogan",48.8202925195066,-119.518294504898
170200060105,"Upper Antoine Creek",1702000601,"Antoine Creek-Okanogan River",17020006,"Okanogan",48.8261939146232,-119.19611219263
170200060106,"Whisky Cache Creek",1702000601,"Antoine Creek-Okanogan River",17020006,"Okanogan",48.8103288547771,-119.337263583757
170200060107,"Lower Antoine Creek",1702000601,"Antoine Creek-Okanogan River",17020006,"Okanogan",48.7965662618227,-119.30382029023
170200060108,"Mosquito Creek-Okanogan River",1702000601,"Antoine Creek-Okanogan River",17020006,"Okanogan",48.840768357043,-119.404371257576
170200060201,"Upper Siwash Creek",1702000602,"Bonaparte Creek-Okanogan River",17020006,"Okanogan",48.739474087867,-119.192016548364
170200060202,"Lower Siwash Creek",1702000602,"Bonaparte Creek-Okanogan River",17020006,"Okanogan",48.7320660818445,-119.299124664567
170200060203,"Upper Bonaparte Creek",1702000602,"Bonaparte Creek-Okanogan River",17020006,"Okanogan",48.7296788712272,-119.087864990034
170200060204,"Peony Creek",1702000602,"Bonaparte Creek-Okanogan River",17020006,"Okanogan",48.6149461667661,-119.190450470198
170200060205,"Lower Bonaparte Creek",1702000602,"Bonaparte Creek-Okanogan River",17020006,"Okanogan",48.6662237850937,-119.297104065641
170200060206,"Aeneas Creek",1702000602,"Bonaparte Creek-Okanogan River",17020006,"Okanogan",48.7321683273639,-119.559680999657
170200060207,"Chewiliken Creek",1702000602,"Bonaparte Creek-Okanogan River",17020006,"Okanogan",48.6076544121698,-119.352346478298
170200060208,"Upper Tunk Creek",1702000602,"Bonaparte Creek-Okanogan River",17020006,"Okanogan",48.5004742406251,-119.297817386417
170200060209,"Tamarack Spring",1702000602,"Bonaparte Creek-Okanogan River",17020006,"Okanogan",48.5542833155334,-119.321776352655
170200060210,"Lower Tunk Creek",1702000602,"Bonaparte Creek-Okanogan River",17020006,"Okanogan",48.5529746037193,-119.409149295082
170200060211,"Whitestone Coulee-Okanogan River",1702000602,"Bonaparte Creek-Okanogan River",17020006,"Okanogan",48.6569063281906,-119.484887216118
170200060301,"West Fork Salmon Creek",1702000603,"Salmon Creek",17020006,"Okanogan",48.5608669268944,-119.878835229895
170200060302,"South Fork Salmon Creek",1702000603,"Salmon Creek",17020006,"Okanogan",48.4949297511584,-119.82371724387
170200060303,"North Fork Salmon Creek",1702000603,"Salmon Creek",17020006,"Okanogan",48.6198895976064,-119.81593412312
170200060304,"Green Lake-Salmon Creek",1702000603,"Salmon Creek",17020006,"Okanogan",48.4625261215975,-119.686316106669
170200060402,"Alkali Lake-Okanogan River",1702000604,"Omak Creek-Okanogan River",17020006,"Okanogan",48.5361474695235,-119.517239876557
170200060404,"Johnson Creek",1702000604,"Omak Creek-Okanogan River",17020006,"Okanogan",48.5046009329301,-119.622434890896
170200060405,"Wanacut Creek",1702000604,"Omak Creek-Okanogan River",17020006,"Okanogan",48.4402960912812,-119.370774986286
170200060406,"Kartar Creek",1702000604,"Omak Creek-Okanogan River",17020006,"Okanogan",48.2474052557443,-119.249100349542
170200060407,"Omak Lake",1702000604,"Omak Creek-Okanogan River",17020006,"Okanogan",48.2904273125142,-119.398483387038
170200060408,"Upper Omak Creeek",1702000604,"Omak Creek-Okanogan River",17020006,"Okanogan",48.3271249092099,-119.140718044061
170200060409,"Middle Omak Creek",1702000604,"Omak Creek-Okanogan River",17020006,"Okanogan",48.3915628746432,-119.23702369163
170200060410,"Lower Omak Creek",1702000604,"Omak Creek-Okanogan River",17020006,"Okanogan",48.3637183945182,-119.371482581191
170200060411,"Swipkin Canyon-Okanogan River",1702000604,"Omak Creek-Okanogan River",17020006,"Okanogan",48.4318646066454,-119.50344682167
170200060501,"Upper Loup Loup Creek",1702000605,"Loup Loup Creek-Okanogan River",17020006,"Okanogan",48.440665386835,-119.770369529769
170200060502,"Summit Creek",1702000605,"Loup Loup Creek-Okanogan River",17020006,"Okanogan",48.3973759726948,-119.828666821757
170200060503,"Lower Loup Loup Creek",1702000605,"Loup Loup Creek-Okanogan River",17020006,"Okanogan",48.3581920123931,-119.731844883171
170200060504,"Tallant Creek-Okanogan River",1702000605,"Loup Loup Creek-Okanogan River",17020006,"Okanogan",48.3382220250385,-119.646342002178
170200060505,"Chiliwist Creek",1702000605,"Loup Loup Creek-Okanogan River",17020006,"Okanogan",48.3185525152549,-119.821066834876
170200060508,"Dan Canyon",1702000605,"Loup Loup Creek-Okanogan River",17020006,"Okanogan",48.1794030521072,-119.605366542084
170200060509,"Davis Canyon-Okanogan River",1702000605,"Loup Loup Creek-Okanogan River",17020006,"Okanogan",48.1861651193753,-119.706986991493
170200080101,"Diamond Creek",1702000801,"Lost River",17020008,"Methow",48.8713696476989,-120.360860084582
170200080102,"Upper Lost River",1702000801,"Lost River",17020008,"Methow",48.8559748095472,-120.461596474949
170200080103,"Eureka Creek",1702000801,"Lost River",17020008,"Methow",48.7642369019503,-120.553590019683
170200080104,"Lower Lost River",1702000801,"Lost River",17020008,"Methow",48.7560284074758,-120.428486107566
170200080201,"West Fork Methow River",1702000802,"Upper Methow River",17020008,"Methow",48.6403699841319,-120.687510814786
170200080202,"Robinson Creek",1702000802,"Upper Methow River",17020008,"Methow",48.7081879064243,-120.585156951566
170200080203,"Cedar Creek",1702000802,"Upper Methow River",17020008,"Methow",48.5315432404513,-120.518578239111
170200080204,"Early Winters Creek",1702000802,"Upper Methow River",17020008,"Methow",48.5714852484786,-120.591506434884
170200080205,"Rattlesnake Creek-Methow River",1702000802,"Upper Methow River",17020008,"Methow",48.6453401117804,-120.509726458966
170200080301,"Headwaters Chewuch River",1702000803,"Upper Chewuch River",17020008,"Methow",48.9510989357333,-120.090051188047
170200080302,"Windy Creek",1702000803,"Upper Chewuch River",17020008,"Methow",48.8690325030969,-119.977987414395
170200080303,"Kay Creek-Chewuch River",1702000803,"Upper Chewuch River",17020008,"Methow",48.8690001166468,-120.046323629565
170200080304,"Andrews Creek",1702000803,"Upper Chewuch River",17020008,"Methow",48.8553924539747,-120.15444904434
170200080305,"Lake Creek",1702000803,"Upper Chewuch River",17020008,"Methow",48.8164408100341,-120.227924727303
170200080306,"Thirtymile Creek-Chewuch River",1702000803,"Upper Chewuch River",17020008,"Methow",48.7833233944302,-120.043587778189
170200080401,"Twenty Mile Creek",1702000804,"Lower Chewuch River",17020008,"Methow",48.7262625127999,-119.997487028097
170200080402,"Falls Creek",1702000804,"Lower Chewuch River",17020008,"Methow",48.7163919277294,-120.225636697749
170200080403,"Doe Creek-Chewuch River",1702000804,"Lower Chewuch River",17020008,"Methow",48.6877853319124,-120.132230816534
170200080404,"Eight Mile Creek",1702000804,"Lower Chewuch River",17020008,"Methow",48.6920139479014,-120.271916337976
170200080405,"North Fork Boulder Creek",1702000804,"Lower Chewuch River",17020008,"Methow",48.6309763250726,-120.006445786357
170200080406,"Boulder Creek",1702000804,"Lower Chewuch River",17020008,"Methow",48.5728472258693,-120.084002770851
170200080407,"Cub Creek",1702000804,"Lower Chewuch River",17020008,"Methow",48.5898923471512,-120.25973809276
170200080408,"Pearrygin Creek-Chewuch River",1702000804,"Lower Chewuch River",17020008,"Methow",48.5312907416334,-120.150637668444
170200080501,"Headwaters Twisp River",1702000805,"Twisp River",17020008,"Methow",48.4715762047664,-120.595989366204
170200080502,"South Creek",1702000805,"Twisp River",17020008,"Methow",48.417361658199,-120.596784892076
170200080503,"Upper Twisp River",1702000805,"Twisp River",17020008,"Methow",48.4142453255948,-120.515198042524
170200080504,"War Creek",1702000805,"Twisp River",17020008,"Methow",48.3382878379023,-120.500918045204
170200080505,"Eagle Creek",1702000805,"Twisp River",17020008,"Methow",48.3039390561431,-120.440668188328
170200080506,"Buttermilk Creek",1702000805,"Twisp River",17020008,"Methow",48.2894689729094,-120.34927444769
170200080507,"Middle Twisp River",1702000805,"Twisp River",17020008,"Methow",48.3776873414826,-120.3986017413
170200080508,"Little Bridge Creek",1702000805,"Twisp River",17020008,"Methow",48.4296721722096,-120.353094791849
170200080509,"Lower Twisp River",1702000805,"Twisp River",17020008,"Methow",48.3669460580466,-120.2332946455
170200080601,"Goat Creek",1702000806,"Middle Methow River",17020008,"Methow",48.664829193782,-120.358668754953
170200080602,"Fawn Creek-Methow River",1702000806,"Middle Methow River",17020008,"Methow",48.5511403702264,-120.348466483047
170200080603,"Wolf Creek",1702000806,"Middle Methow River",17020008,"Methow",48.4834080448205,-120.399020053642
170200080604,"Bear Creek",1702000806,"Middle Methow River",17020008,"Methow",48.4825540654094,-120.088948014119
170200080605,"Thompson Creek-Methow River",1702000806,"Middle Methow River",17020008,"Methow",48.4419573450574,-120.194566539971
170200080606,"South Fork Beaver Creek",1702000806,"Middle Methow River",17020008,"Methow",48.4471881833087,-119.919908873759
170200080607,"Upper Beaver Creek",1702000806,"Middle Methow River",17020008,"Methow",48.4942592257551,-119.986478399077
170200080608,"Lower Beaver Creek",1702000806,"Middle Methow River",17020008,"Methow",48.3934584156187,-120.00224702272
170200080609,"Benson Creek",1702000806,"Middle Methow River",17020008,"Methow",48.3071310862034,-119.961108072032
170200080610,"Alder Creek-Methow River",1702000806,"Middle Methow River",17020008,"Methow",48.3153259173058,-120.087803424573
170200080701,"Libby Creek",1702000807,"Lower Methow River",17020008,"Methow",48.2705842157316,-120.224424230922
170200080702,"Texas Creek-Methow River",1702000807,"Lower Methow River",17020008,"Methow",48.2250068223856,-120.080891185322
170200080703,"South Fork Gold Creek",1702000807,"Lower Methow River",17020008,"Methow",48.1286857381623,-120.19673997424
170200080704,"Gold Creek",1702000807,"Lower Methow River",17020008,"Methow",48.1900245118591,-120.257215550143
170200080705,"French Creek",1702000807,"Lower Methow River",17020008,"Methow",48.1854749846345,-119.962779859495
170200080706,"McFarland Creek-Methow River",1702000807,"Lower Methow River",17020008,"Methow",48.1357929791212,-120.06884183916
170200080707,"Squaw Creek",1702000807,"Lower Methow River",17020008,"Methow",48.0885159984155,-120.094259462969
170200080708,"Black Canyon Creek",1702000807,"Lower Methow River",17020008,"Methow",48.039558608816,-120.059078962252
170200080709,"Alta Coulee-Methow River",1702000807,"Lower Methow River",17020008,"Methow",48.0506510231263,-119.959165741615
170200100101,"Upper Mad River",1702001001,"Mad River",17020010,"Upper Columbia-Entiat",47.8594707342235,-120.559656679416
170200100102,"Tillicum Creek",1702001001,"Mad River",17020010,"Upper Columbia-Entiat",47.7263798813449,-120.467216721471
170200100103,"Lower Mad River",1702001001,"Mad River",17020010,"Upper Columbia-Entiat",47.7774776562833,-120.457693601064
170200100201,"Headwaters Entiat River",1702001002,"Entiat River",17020010,"Upper Columbia-Entiat",48.1130814701842,-120.72817698038
170200100202,"Three Creek-Entiat River",1702001002,"Entiat River",17020010,"Upper Columbia-Entiat",48.0152164397316,-120.652015681096
170200100203,"North Fork Entiat River",1702001002,"Entiat River",17020010,"Upper Columbia-Entiat",48.0561103659337,-120.589382708468
170200100204,"Lake Creek-Entiat River",1702001002,"Entiat River",17020010,"Upper Columbia-Entiat",47.9512070711299,-120.519749085149
170200100205,"Preston Creek-Entiat River",1702001002,"Entiat River",17020010,"Upper Columbia-Entiat",47.8914452195951,-120.42288029685
170200100206,"Mud Creek",1702001002,"Entiat River",17020010,"Upper Columbia-Entiat",47.7941575829106,-120.302079678714
170200100207,"Potato Creek-Entiat River",1702001002,"Entiat River",17020010,"Upper Columbia-Entiat",47.8197127201904,-120.381201711363
170200100208,"Roaring Creek",1702001002,"Entiat River",17020010,"Upper Columbia-Entiat",47.6620814653348,-120.405104460755
170200100209,"Mills Creek-Entiat River",1702001002,"Entiat River",17020010,"Upper Columbia-Entiat",47.6833985117232,-120.311789518723
170200100303,"Byrd Canyon-Columbia River",1702001003,"Lake Entiat-Columbia River",17020010,"Upper Columbia-Entiat",47.7230126076125,-120.194816771887
170200100304,"Cobaley Canyon",1702001003,"Lake Entiat-Columbia River",17020010,"Upper Columbia-Entiat",47.6546305317717,-120.135611655823
170200100305,"Swakane Creek",1702001003,"Lake Entiat-Columbia River",17020010,"Upper Columbia-Entiat",47.5894318396185,-120.374949348474
170200100306,"Spencer Canyon-Columbia River",1702001003,"Lake Entiat-Columbia River",17020010,"Upper Columbia-Entiat",47.5900665085141,-120.250629636503
170200100307,"Rainey Spring-Columbia River",1702001003,"Lake Entiat-Columbia River",17020010,"Upper Columbia-Entiat",47.4977673685805,-120.290708906733
170200100308,"Number Two Canyon-Columbia River",1702001003,"Lake Entiat-Columbia River",17020010,"Upper Columbia-Entiat",47.4186248334015,-120.331031743484
170200100309,"Squilchuck Creek",1702001003,"Lake Entiat-Columbia River",17020010,"Upper Columbia-Entiat",47.3356762307766,-120.366426244042
170200100310,"Stemilt Creek",1702001003,"Lake Entiat-Columbia River",17020010,"Upper Columbia-Entiat",47.2954794932567,-120.318987396161
170200100311,"Beaver Creek",1702001003,"Lake Entiat-Columbia River",17020010,"Upper Columbia-Entiat",47.4811075153231,-120.169770939191
170200100312,"Rock Island Creek",1702001003,"Lake Entiat-Columbia River",17020010,"Upper Columbia-Entiat",47.4891837062816,-120.104782394289
170200100313,"Hammond Lake-Columbia River",1702001003,"Lake Entiat-Columbia River",17020010,"Upper Columbia-Entiat",47.3780576892861,-120.191981818898
170200100401,"Dry Gulch-Columbia River",1702001004,"Lynch Coulee-Columbia River",17020010,"Upper Columbia-Entiat",47.3258899853681,-120.130779275178
170200100402,"Colockum Creek",1702001004,"Lynch Coulee-Columbia River",17020010,"Upper Columbia-Entiat",47.2692617466784,-120.226719795667
170200100403,"Tarpiscan Creek",1702001004,"Lynch Coulee-Columbia River",17020010,"Upper Columbia-Entiat",47.2164801093132,-120.187892513389
170200100404,"Lynch Coulee",1702001004,"Lynch Coulee-Columbia River",17020010,"Upper Columbia-Entiat",47.3167903474212,-119.902927723706
170200100405,"Whitson Canyon-Columbia River",1702001004,"Lynch Coulee-Columbia River",17020010,"Upper Columbia-Entiat",47.2342824166848,-120.06390668456
170200100406,"Tekison Creek",1702001004,"Lynch Coulee-Columbia River",17020010,"Upper Columbia-Entiat",47.1763453163593,-120.154876672986
170200100407,"Quilomene Creek",1702001004,"Lynch Coulee-Columbia River",17020010,"Upper Columbia-Entiat",47.11400052705,-120.150238651233
170200100408,"Potholes Coulee-Columbia River",1702001004,"Lynch Coulee-Columbia River",17020010,"Upper Columbia-Entiat",47.1387630090317,-119.981683330872
170200100409,"Skookumchuck Creek-Columbia River",1702001004,"Lynch Coulee-Columbia River",17020010,"Upper Columbia-Entiat",47.0680175567236,-120.084742401587
170200100501,"Whiskey Dick Creek",1702001005,"Sand Hollow-Columbia River",17020010,"Upper Columbia-Entiat",47.0216784455393,-120.124682527058
170200100502,"Spring Cayuse Creek-Columbia River",1702001005,"Sand Hollow-Columbia River",17020010,"Upper Columbia-Entiat",47.0102495575051,-119.983758731013
170200100503,"Rocky Coulee",1702001005,"Sand Hollow-Columbia River",17020010,"Upper Columbia-Entiat",46.9735138881529,-120.092799471556
170200100504,"Sand Hollow",1702001005,"Sand Hollow-Columbia River",17020010,"Upper Columbia-Entiat",46.9434569976361,-119.833639150252
170200100505,"Johnson Creek",1702001005,"Sand Hollow-Columbia River",17020010,"Upper Columbia-Entiat",46.8913310532716,-120.111295083337
170200100506,"Ryegrass Coulee-Columbia River",1702001005,"Sand Hollow-Columbia River",17020010,"Upper Columbia-Entiat",46.9356607008135,-120.035528214433
170200100507,"Town of Beverly-Columbia River",1702001005,"Sand Hollow-Columbia River",17020010,"Upper Columbia-Entiat",46.8603151864132,-119.945951572975
170200110101,"Indian Creek",1702001101,"White River-Little Wenatchee River",17020011,"Wenatchee",47.9798167468086,-121.042640476492
170200110102,"Upper White River",1702001101,"White River-Little Wenatchee River",17020011,"Wenatchee",48.0192826441748,-121.01424022031
170200110103,"Panther Creek",1702001101,"White River-Little Wenatchee River",17020011,"Wenatchee",47.9249184604595,-121.002126977809
170200110104,"Napeequa River",1702001101,"White River-Little Wenatchee River",17020011,"Wenatchee",48.004121368277,-120.906034441537
170200110105,"Lower White River",1702001101,"White River-Little Wenatchee River",17020011,"Wenatchee",47.8898747867951,-120.891287223734
170200110106,"Upper Little Wenatchee River",1702001101,"White River-Little Wenatchee River",17020011,"Wenatchee",47.9250969952151,-121.113439070105
170200110107,"Lake Creek",1702001101,"White River-Little Wenatchee River",17020011,"Wenatchee",47.8593371537772,-121.096286691045
170200110108,"Middle Little Wenatchee River",1702001101,"White River-Little Wenatchee River",17020011,"Wenatchee",47.8674827163384,-120.998145934203
170200110109,"Rainy Creek",1702001101,"White River-Little Wenatchee River",17020011,"Wenatchee",47.8177570577587,-121.013125860053
170200110110,"Lower Little Wenatchee River",1702001101,"White River-Little Wenatchee River",17020011,"Wenatchee",47.8378074088256,-120.904801189952
170200110111,"Lake Wenatchee",1702001101,"White River-Little Wenatchee River",17020011,"Wenatchee",47.8242620762701,-120.782396138031
170200110201,"Upper Nason Creek",1702001102,"Nason Creek",17020011,"Wenatchee",47.7703898742207,-121.025191905537
170200110202,"Whitepine Creek",1702001102,"Nason Creek",17020011,"Wenatchee",47.7209874736947,-120.970675289497
170200110203,"Lower Nason Creek",1702001102,"Nason Creek",17020011,"Wenatchee",47.7682391496515,-120.817097522752
170200110301,"Headwaters Chiwawa River",1702001103,"Chiwawa River",17020011,"Wenatchee",48.113315081624,-120.900872149265
170200110302,"Phelps Creek",1702001103,"Chiwawa River",17020011,"Wenatchee",48.1263124428811,-120.837530769826
170200110303,"Upper Chiwawa River",1702001103,"Chiwawa River",17020011,"Wenatchee",48.0182986278822,-120.834340686466
170200110304,"Rock Creek",1702001103,"Chiwawa River",17020011,"Wenatchee",48.0303011494467,-120.767449805193
170200110305,"Middle Chiwawa River",1702001103,"Chiwawa River",17020011,"Wenatchee",47.9351538744872,-120.782234948067
170200110306,"Chikamin Creek",1702001103,"Chiwawa River",17020011,"Wenatchee",47.9610283861648,-120.705841155423
170200110307,"Big Meadow Creek",1702001103,"Chiwawa River",17020011,"Wenatchee",47.8746243263257,-120.766750104545
170200110308,"Lower Chiwawa River",1702001103,"Chiwawa River",17020011,"Wenatchee",47.8601551861907,-120.659140744669
170200110401,"Upper Icicle Creek",1702001104,"Icicle Creek",17020011,"Wenatchee",47.6569230208604,-121.040825819077
170200110402,"French Creek",1702001104,"Icicle Creek",17020011,"Wenatchee",47.5889861704267,-121.033963120011
170200110403,"Jack Creek",1702001104,"Icicle Creek",17020011,"Wenatchee",47.5372911842558,-120.957654775077
170200110404,"Middle Icicle Creek",1702001104,"Icicle Creek",17020011,"Wenatchee",47.5930938924521,-120.871988465258
170200110405,"Eightmile Creek",1702001104,"Icicle Creek",17020011,"Wenatchee",47.5148910299653,-120.852512558837
170200110406,"Lower Icicle Creek",1702001104,"Icicle Creek",17020011,"Wenatchee",47.5266986450839,-120.732369380551
170200110501,"Upper Peshastin Creek",1702001105,"Peshastin Creek",17020011,"Wenatchee",47.3913912583351,-120.650860084852
170200110502,"Ingalls Creek",1702001105,"Peshastin Creek",17020011,"Wenatchee",47.4495119193921,-120.817653559429
170200110503,"Lower Peshastin Creek",1702001105,"Peshastin Creek",17020011,"Wenatchee",47.5001966510539,-120.637038403205
170200110601,"East Fork Mission Creek",1702001106,"Mission Creek",17020011,"Wenatchee",47.357114875701,-120.452969516287
170200110602,"Devil's Gulch",1702001106,"Mission Creek",17020011,"Wenatchee",47.3465836403978,-120.502507550793
170200110603,"Sand Creek",1702001106,"Mission Creek",17020011,"Wenatchee",47.4272554749503,-120.559025389452
170200110604,"Brender Creek-Mission Creek",1702001106,"Mission Creek",17020011,"Wenatchee",47.4681849326597,-120.50098132708
170200110701,"Beaver Creek-Wenatchee River",1702001107,"Wenatchee River",17020011,"Wenatchee",47.7657517637141,-120.667611698119
170200110702,"Chiwaukum Creek",1702001107,"Wenatchee River",17020011,"Wenatchee",47.692916895855,-120.837144886626
170200110703,"Tumwater Canyon-Wenatchee River",1702001107,"Wenatchee River",17020011,"Wenatchee",47.6262855925075,-120.747793585066
170200110704,"Eagle Creek",1702001107,"Wenatchee River",17020011,"Wenatchee",47.658912919725,-120.543228820087
170200110705,"Chumstick Creek",1702001107,"Wenatchee River",17020011,"Wenatchee",47.6946691538536,-120.616715245187
170200110706,"Derby Canyon-Wenatchee River",1702001107,"Wenatchee River",17020011,"Wenatchee",47.6026879456089,-120.591901444382
170200110707,"Ollala Canyon-Wenatchee River",1702001107,"Wenatchee River",17020011,"Wenatchee",47.5664090800572,-120.512895385127
170200110708,"Nahahum Canyon-Wenatchee River",1702001107,"Wenatchee River",17020011,"Wenatchee",47.5119357929931,-120.405518588729
170200120406,"Lower Moses Coulee",1702001204,"Moses Coulee",17020012,"Moses Coulee",47.3414775351955,-120.033188730577
170200150201,"Upper Rocky Coulee",1702001502,"Rocky Coulee",17020015,"Lower Crab",47.2382431445475,-118.516663573432
170200150202,"Middle Rocky Coulee",1702001502,"Rocky Coulee",17020015,"Lower Crab",47.2430442810317,-118.729224344804
170200150203,"Lower Rocky Coulee",1702001502,"Rocky Coulee",17020015,"Lower Crab",47.2099984467694,-118.925172543152
170200150204,"Rocky Branch Coulee",1702001502,"Rocky Coulee",17020015,"Lower Crab",47.1826124314558,-119.078594759255
170200150301,"Upper Rocky Ford Creek",1702001503,"Rocky Ford Creek",17020015,"Lower Crab",47.3161837620814,-119.462905351144
170200150302,"Lower Rocky Ford Creek",1702001503,"Rocky Ford Creek",17020015,"Lower Crab",47.2230524631905,-119.406777898548
170200150403,"Willow Lake-Crab Creek",1702001504,"Round Lake-Crab Creek",17020015,"Lower Crab",47.3343915357636,-119.36217810707
170200150406,"Gloyd Seeps-Crab Creek",1702001504,"Round Lake-Crab Creek",17020015,"Lower Crab",47.2221540830676,-119.278524078195
170200150607,"Lower Frenchman Hills Wasteway",1702001506,"Frenchman Hills Wasteway",17020015,"Lower Crab",46.97862914289,-119.50874169101
170200150701,"Upper Bauer Coulee",1702001507,"Weber Coulee",17020015,"Lower Crab",47.1362634342835,-118.499704197424
170200150702,"170200150702",1702001507,"Weber Coulee",17020015,"Lower Crab",47.1462979798927,-118.595459211131
170200150703,"Lower Bauer Coulee",1702001507,"Weber Coulee",17020015,"Lower Crab",47.0719832286456,-118.744678085531
170200150704,"Upper Farrier Coulee",1702001507,"Weber Coulee",17020015,"Lower Crab",47.1821552579735,-118.659898973227
170200150705,"Lower Farrier Coulee",1702001507,"Weber Coulee",17020015,"Lower Crab",47.1345777390029,-118.79563481001
170200150706,"Upper Weber Coulee",1702001507,"Weber Coulee",17020015,"Lower Crab",47.1392703305093,-118.914128166586
170200150707,"Lower Weber Coulee",1702001507,"Weber Coulee",17020015,"Lower Crab",47.0770642715752,-119.049820728541
170200150802,"Town of Ralston-Lind Coulee",1702001508,"Lind Coulee",17020015,"Lower Crab",46.9859497153594,-118.376997213227
170200150803,"Lower McElroy Coulee",1702001508,"Lind Coulee",17020015,"Lower Crab",47.0241297336946,-118.42105146157
170200150804,"Kautz Dam-Lind Coulee",1702001508,"Lind Coulee",17020015,"Lower Crab",46.9478035539288,-118.508238834782
170200150805,"Upper Paha Coulee",1702001508,"Lind Coulee",17020015,"Lower Crab",47.1108043486607,-118.401767658958
170200150806,"Lower Paha Coulee",1702001508,"Lind Coulee",17020015,"Lower Crab",47.0413173631648,-118.510533321339
170200150807,"Town of Lind-Lind Coulee",1702001508,"Lind Coulee",17020015,"Lower Crab",47.0039572271421,-118.609030469235
170200150808,"170200150808",1702001508,"Lind Coulee",17020015,"Lower Crab",46.999465098801,-118.791620663397
170200150809,"Town of Roxboro-Lind Coulee",1702001508,"Lind Coulee",17020015,"Lower Crab",46.9567848596282,-118.7594482599
170200150810,"Warden Hutterian Brethren",1702001508,"Lind Coulee",17020015,"Lower Crab",47.0251046162508,-118.913634072522
170200150811,"Town of Warden-Lind Coulee",1702001508,"Lind Coulee",17020015,"Lower Crab",46.9850450959963,-119.013647421695
170200150812,"Town of Sieler",1702001508,"Lind Coulee",17020015,"Lower Crab",47.0967212210437,-119.137914887162
170200150813,"Lind Coulee-Pot Hole Reservoir",1702001508,"Lind Coulee",17020015,"Lower Crab",47.0003857285631,-119.142694181134
170200150903,"Town of McDonald",1702001509,"Crab Creek-Pothole Reservoir",17020015,"Lower Crab",47.1154314254858,-119.208240489845
170200150904,"Potholes Reservoir",1702001509,"Crab Creek-Pothole Reservoir",17020015,"Lower Crab",47.0351974745194,-119.359903872335
170200151003,"Herman Lake",1702001510,"Lower Crab Creek",17020015,"Lower Crab",46.9358038558333,-119.195411506414
170200151004,"Hutchinson Lake-Lower Crab Creek",1702001510,"Lower Crab Creek",17020015,"Lower Crab",46.9095635758892,-119.284515171939
170200151005,"Thread Lake",1702001510,"Lower Crab Creek",17020015,"Lower Crab",46.824864468386,-119.295532988043
170200151006,"Royal Lake-Lower Crab Creek",1702001510,"Lower Crab Creek",17020015,"Lower Crab",46.8710649287225,-119.379935425417
170200151007,"Crab Creek Lateral",1702001510,"Lower Crab Creek",17020015,"Lower Crab",46.9091847835171,-119.434851112776
170200151008,"Upper Red Rock Coulee",1702001510,"Lower Crab Creek",17020015,"Lower Crab",46.9282356218297,-119.650360896657
170200151009,"Lower Red Rock Coulee",1702001510,"Lower Crab Creek",17020015,"Lower Crab",46.8949192273007,-119.561809420342
170200151010,"Smyrna Bench-Lower Crab Creek",1702001510,"Lower Crab Creek",17020015,"Lower Crab",46.8348756563848,-119.522289509953
170200151011,"Nunnally Lake",1702001510,"Lower Crab Creek",17020015,"Lower Crab",46.87120641416,-119.81400963728
170200151012,"Town of Jericho-Lower Crab Creek",1702001510,"Lower Crab Creek",17020015,"Lower Crab",46.8403713855896,-119.721461610843
170200160101,"Hanson Creek",1702001601,"Hanson Creek-Columbia River",17020016,"Upper Columbia-Priest Rapids",46.8079248643328,-120.08428625653
170200160102,"Priest Rapids-Columbia River",1702001601,"Hanson Creek-Columbia River",17020016,"Upper Columbia-Priest Rapids",46.7731382918,-119.966199404286
170200160103,"Alkali Canyon",1702001601,"Hanson Creek-Columbia River",17020016,"Upper Columbia-Priest Rapids",46.71407821954,-120.115213752864
170200160104,"Corral Canyon",1702001601,"Hanson Creek-Columbia River",17020016,"Upper Columbia-Priest Rapids",46.6904424803203,-120.056164426727
170200160105,"Goose Island-Columbia River",1702001601,"Hanson Creek-Columbia River",17020016,"Upper Columbia-Priest Rapids",46.6869460414614,-119.940806236804
170200160306,"Worth Lake",1702001603,"Worth Lake-Eagle Lakes",17020016,"Upper Columbia-Priest Rapids",46.5759082309392,-119.151635633841
170300010101,"Waptus River",1703000101,"Cle Elum River",17030001,"Upper Yakima",47.4985862160002,-121.155567701059
170300010102,"Headwaters Cle Elum River",1703000101,"Cle Elum River",17030001,"Upper Yakima",47.499662383337,-121.056344253472
170300010103,"Cooper River",1703000101,"Cle Elum River",17030001,"Upper Yakima",47.4515323484823,-121.213269769276
170300010104,"Upper Cle Elum River",1703000101,"Cle Elum River",17030001,"Upper Yakima",47.373824886425,-121.114192498234
170300010105,"Middle Cle Elum River",1703000101,"Cle Elum River",17030001,"Upper Yakima",47.2977753669078,-121.103175308939
170300010106,"Lower Cle Elum River",1703000101,"Cle Elum River",17030001,"Upper Yakima",47.2319023939645,-121.059050611831
170300010201,"Upper North Fork Teanaway River",1703000102,"Middle ForkTenaway River-Tenaway River",17030001,"Upper Yakima",47.3938083352706,-120.8584892967
170300010202,"Middle Fork Teanaway River",1703000102,"Middle ForkTenaway River-Tenaway River",17030001,"Upper Yakima",47.3527059847191,-120.966276973023
170300010203,"West Fork Teanaway River",1703000102,"Middle ForkTenaway River-Tenaway River",17030001,"Upper Yakima",47.2992387090684,-121.001590064917
170300010204,"Lower North Fork Teanaway River",1703000102,"Middle ForkTenaway River-Tenaway River",17030001,"Upper Yakima",47.3157644549921,-120.844483246129
170300010205,"Tenaway River",1703000102,"Middle ForkTenaway River-Tenaway River",17030001,"Upper Yakima",47.2313195480502,-120.812081534103
170300010301,"Headwaters Yakima River",1703000103,"Kachess River-Yakima River",17030001,"Upper Yakima",47.3739737878284,-121.380237536711
170300010302,"Cabin Creek",1703000103,"Kachess River-Yakima River",17030001,"Upper Yakima",47.2064455826377,-121.272347140451
170300010303,"Kachess River",1703000103,"Kachess River-Yakima River",17030001,"Upper Yakima",47.3670737950865,-121.254892048697
170300010304,"Stampede Creek-Yakima River",1703000103,"Kachess River-Yakima River",17030001,"Upper Yakima",47.2828519899037,-121.29253174646
170300010305,"Big Creek",1703000103,"Kachess River-Yakima River",17030001,"Upper Yakima",47.1561733588372,-121.197732944015
170300010306,"Little Creek-Yakima River",1703000103,"Kachess River-Yakima River",17030001,"Upper Yakima",47.1997759768502,-121.116247977458
170300010307,"Crystal Creek-Yakima River",1703000103,"Kachess River-Yakima River",17030001,"Upper Yakima",47.1843792859947,-120.924932891103
170300010401,"Upper Naneum Creek",1703000104,"Wilson Creek-Cherry Creek",17030001,"Upper Yakima",47.2753743967428,-120.508793754735
170300010402,"Middle Naneum Creek",1703000104,"Wilson Creek-Cherry Creek",17030001,"Upper Yakima",47.2072501262874,-120.447141809523
170300010403,"Colemant Creek",1703000104,"Wilson Creek-Cherry Creek",17030001,"Upper Yakima",47.1144746798126,-120.416290101401
170300010404,"Caribou Creek",1703000104,"Wilson Creek-Cherry Creek",17030001,"Upper Yakima",47.069498139504,-120.32378131994
170300010405,"Cooke Creek",1703000104,"Wilson Creek-Cherry Creek",17030001,"Upper Yakima",47.1013533865631,-120.364351639625
170300010406,"Upper Park Creek",1703000104,"Wilson Creek-Cherry Creek",17030001,"Upper Yakima",46.992189198159,-120.268867676686
170300010407,"Lower Park Creek",1703000104,"Wilson Creek-Cherry Creek",17030001,"Upper Yakima",46.9468421163034,-120.369004216388
170300010408,"Lower Naneum Creek-Wilson Creek",1703000104,"Wilson Creek-Cherry Creek",17030001,"Upper Yakima",47.0693183160614,-120.513520338455
170300010409,"Cherry Creek",1703000104,"Wilson Creek-Cherry Creek",17030001,"Upper Yakima",46.8927062043091,-120.353537634601
170300010501,"Upper Swauk Creek",1703000105,"Taneum Creek-Yakima River",17030001,"Upper Yakima",47.2943540399469,-120.668206792317
170300010502,"Lower Swauk Creek",1703000105,"Taneum Creek-Yakima River",17030001,"Upper Yakima",47.197557424982,-120.687427717735
170300010503,"North Fork Taneum Creek",1703000105,"Taneum Creek-Yakima River",17030001,"Upper Yakima",47.1016329609166,-121.028414367204
170300010504,"Taneum Creek",1703000105,"Taneum Creek-Yakima River",17030001,"Upper Yakima",47.088649550313,-120.837552260231
170300010505,"Morrison Canyon-Yakima River",1703000105,"Taneum Creek-Yakima River",17030001,"Upper Yakima",47.1305820576424,-120.796224525488
170300010506,"Dry Creek",1703000105,"Taneum Creek-Yakima River",17030001,"Upper Yakima",47.1249678731561,-120.645892908327
170300010507,"Robinson Creek-Yakima River",1703000105,"Taneum Creek-Yakima River",17030001,"Upper Yakima",47.0385241191962,-120.700207400167
170300010508,"South Fork Manastash Creek",1703000105,"Taneum Creek-Yakima River",17030001,"Upper Yakima",47.0074408273643,-120.910042343349
170300010509,"North Fork Manastash Creek",1703000105,"Taneum Creek-Yakima River",17030001,"Upper Yakima",47.0258936904459,-120.84412880587
170300010510,"Currier Creek",1703000105,"Taneum Creek-Yakima River",17030001,"Upper Yakima",47.1170443379333,-120.565120665714
170300010511,"Manastash Creek-Yakima River",1703000105,"Taneum Creek-Yakima River",17030001,"Upper Yakima",46.9554613623209,-120.611866718576
170300010601,"South Fork Wenas River",1703000106,"Wenas River",17030001,"Upper Yakima",46.8645818560409,-120.867751923029
170300010602,"Upper Wenas River",1703000106,"Wenas River",17030001,"Upper Yakima",46.9240265697111,-120.842416148546
170300010603,"Middle Wenas Creek",1703000106,"Wenas River",17030001,"Upper Yakima",46.8322722337377,-120.751505548732
170300010604,"Cottonwood Creek",1703000106,"Wenas River",17030001,"Upper Yakima",46.7775788114814,-120.541993484984
170300010605,"Lower Wenas River",1703000106,"Wenas River",17030001,"Upper Yakima",46.7760897142726,-120.619316577154
170300010701,"Umtanum Creek",1703000107,"Umtanum Creek-Yakima River",17030001,"Upper Yakima",46.8959355380124,-120.627218489546
170300010702,"Upper Squaw Creek",1703000107,"Umtanum Creek-Yakima River",17030001,"Upper Yakima",46.7489233329295,-120.207366424735
170300010703,"Middle Squaw Creek",1703000107,"Umtanum Creek-Yakima River",17030001,"Upper Yakima",46.7822389164908,-120.291275717779
170300010704,"Lower Squaw Creek",1703000107,"Umtanum Creek-Yakima River",17030001,"Upper Yakima",46.8303601299944,-120.340075692403
170300010705,"Mcpherson Canyon-Yakima Creek",1703000107,"Umtanum Creek-Yakima River",17030001,"Upper Yakima",46.8667183071828,-120.468708144467
170300010706,"Upper Selah Creek",1703000107,"Umtanum Creek-Yakima River",17030001,"Upper Yakima",46.6559631031523,-120.191167128691
170300010707,"Lower Selah Creek",1703000107,"Umtanum Creek-Yakima River",17030001,"Upper Yakima",46.6784416152813,-120.348155462389
170300010708,"Roza Creek-Yakima River",1703000107,"Umtanum Creek-Yakima River",17030001,"Upper Yakima",46.7759332795199,-120.45645201102
170300010709,"City of Selah-Yakima River",1703000107,"Umtanum Creek-Yakima River",17030001,"Upper Yakima",46.6708289649838,-120.495610685986
170300020101,"Headwaters Little Naches River",1703000201,"Little Naches River",17030002,"Naches",47.1121822919405,-121.342020613379
170300020102,"Upper Little Naches River",1703000201,"Little Naches River",17030002,"Naches",47.0727974482602,-121.280517777255
170300020103,"Crow Creek",1703000201,"Little Naches River",17030002,"Naches",46.9992866414968,-121.301647671114
170300020104,"Deep Creek",1703000201,"Little Naches River",17030002,"Naches",46.7774776774718,-121.327124408854
170300020105,"Upper Bumping River",1703000201,"Little Naches River",17030002,"Naches",46.8137694418107,-121.3834078528
170300020106,"Upper American River",1703000201,"Little Naches River",17030002,"Naches",46.8991074192501,-121.429891871737
170300020107,"Lower American River",1703000201,"Little Naches River",17030002,"Naches",46.9478763424044,-121.290218440101
170300020108,"Lower Bumping River",1703000201,"Little Naches River",17030002,"Naches",46.910700437459,-121.231725550025
170300020109,"Lower Little Naches River",1703000201,"Little Naches River",17030002,"Naches",47.0410022046028,-121.137888863856
170300020201,"Rock Creek",1703000202,"Rattlesnake Creek-Naches River",17030002,"Naches",46.9279783738944,-120.961111437621
170300020202,"Lost Creek-Naches River",1703000202,"Rattlesnake Creek-Naches River",17030002,"Naches",46.9436172595632,-121.059685652986
170300020203,"Nile Creek",1703000202,"Rattlesnake Creek-Naches River",17030002,"Naches",46.8670911984009,-121.091438841675
170300020204,"Upper Rattlesnake Creek",1703000202,"Rattlesnake Creek-Naches River",17030002,"Naches",46.7519803896115,-121.224070699388
170300020205,"Little Rattlesnake Creek",1703000202,"Rattlesnake Creek-Naches River",17030002,"Naches",46.7547641533681,-121.043447517056
170300020206,"Lower Rattlesnake Creek",1703000202,"Rattlesnake Creek-Naches River",17030002,"Naches",46.8105234557101,-121.119364807673
170300020207,"Dry Creek-Naches River",1703000202,"Rattlesnake Creek-Naches River",17030002,"Naches",46.8509164390305,-120.975052151867
170300020208,"Waterworks Canyon-Naches River",1703000202,"Rattlesnake Creek-Naches River",17030002,"Naches",46.7852615912668,-120.862828904017
170300020301,"Clear Creek",1703000203,"Tieton River-Naches River",17030002,"Naches",46.6621050150099,-121.355529549904
170300020302,"North Fork Tieton River",1703000203,"Tieton River-Naches River",17030002,"Naches",46.5722825585424,-121.366152325747
170300020303,"Upper South Fork Tieton River",1703000203,"Tieton River-Naches River",17030002,"Naches",46.4935766780582,-121.324917390894
170300020304,"Lower South Fork Tieton River",1703000203,"Tieton River-Naches River",17030002,"Naches",46.5716929503651,-121.208905211177
170300020305,"Upper Tieton River",1703000203,"Tieton River-Naches River",17030002,"Naches",46.6517095855689,-121.252408977393
170300020306,"Middle Tieton River",1703000203,"Tieton River-Naches River",17030002,"Naches",46.6692997871432,-121.140170130801
170300020307,"Oak Creek",1703000203,"Tieton River-Naches River",17030002,"Naches",46.7317341578516,-120.955764531705
170300020308,"Tieton River",1703000203,"Tieton River-Naches River",17030002,"Naches",46.6886999152853,-120.971979379305
170300020309,"South Fork Cowiche Creek",1703000203,"Tieton River-Naches River",17030002,"Naches",46.6027713985818,-120.996067321278
170300020310,"North Fork Cowiche Creek",1703000203,"Tieton River-Naches River",17030002,"Naches",46.6861367712066,-120.802665270515
170300020311,"South Fork Cowiche Creek-Cowiche Creek",1703000203,"Tieton River-Naches River",17030002,"Naches",46.6412787342069,-120.77992513225
170300020312,"Naches River",1703000203,"Tieton River-Naches River",17030002,"Naches",46.6957718779491,-120.661729937682
170300030101,"Headwaters North Fork Ahtnum Creek",1703000301,"Ahtanum Creek",17030003,"Lower Yakima",46.5137872125455,-121.115932518422
170300030102,"North Fork Ahtnum Creek",1703000301,"Ahtanum Creek",17030003,"Lower Yakima",46.5513197179557,-120.987049704152
170300030103,"South Fork Ahtanum Creek",1703000301,"Ahtanum Creek",17030003,"Lower Yakima",46.4872872315207,-120.99213974855
170300030104,"Upper Ahtanum Creek",1703000301,"Ahtanum Creek",17030003,"Lower Yakima",46.537779692621,-120.83793103046
170300030105,"Lower Ahtanum Creek",1703000301,"Ahtanum Creek",17030003,"Lower Yakima",46.5368107214223,-120.645954830512
170300030201,"Firewater Canyon",1703000302,"Wide Hollow Creek-Yakima River",17030003,"Lower Yakima",46.5270358877705,-120.135471175966
170300030202,"Moxee Valley",1703000302,"Wide Hollow Creek-Yakima River",17030003,"Lower Yakima",46.5594751043818,-120.226711380593
170300030203,"Washout Gulch-Moxee Valley",1703000302,"Wide Hollow Creek-Yakima River",17030003,"Lower Yakima",46.5597148618573,-120.334590648688
170300030204,"Upper Wide Hollow Creek",1703000302,"Wide Hollow Creek-Yakima River",17030003,"Lower Yakima",46.5846736575728,-120.775207024243
170300030205,"Lower Wide Hollow Creek",1703000302,"Wide Hollow Creek-Yakima River",17030003,"Lower Yakima",46.5912256850493,-120.599141289262
170300030206,"City of Yakima-Yakima River",1703000302,"Wide Hollow Creek-Yakima River",17030003,"Lower Yakima",46.5969339274697,-120.410842053039
170300030301,"North Fork Simcoe Creek-South Fork Simcoe Creek",1703000303,"Simcoe Creek",17030003,"Lower Yakima",46.4237871556149,-121.000342944164
170300030302,"Upper Simcoe Creek",1703000303,"Simcoe Creek",17030003,"Lower Yakima",46.3896171336652,-120.894480895208
170300030303,"Agency Creek",1703000303,"Simcoe Creek",17030003,"Lower Yakima",46.3430217919409,-120.905050085526
170300030305,"Lower Simcoe Creek",1703000303,"Simcoe Creek",17030003,"Lower Yakima",46.4064967368716,-120.797040240658
170300030501,"Wapato Dam-Yakima River",1703000305,"Deep Canyon-Yakima River",17030003,"Lower Yakima",46.480408131897,-120.394187447209
170300030502,"Racehorse Canyon",1703000305,"Deep Canyon-Yakima River",17030003,"Lower Yakima",46.4678705982391,-120.300217115622
170300030503,"Town of Zillah-Yakima River",1703000305,"Deep Canyon-Yakima River",17030003,"Lower Yakima",46.4339339685674,-120.208976775808
170300030505,"Granger",1703000305,"Deep Canyon-Yakima River",17030003,"Lower Yakima",46.4016601282638,-120.136050345244
170300030506,"City of Toppenish-Yakima River",1703000305,"Deep Canyon-Yakima River",17030003,"Lower Yakima",46.370775657061,-120.248139117045
170300030601,"North Fork Toppenish Creek",1703000306,"Toppenish Creek",17030003,"Lower Yakima",46.3034194827664,-121.014527435429
170300030602,"Headwaters Toppenish Creek",1703000306,"Toppenish Creek",17030003,"Lower Yakima",46.2809078597495,-121.080265061093
170300030603,"Olney Creek-Toppenish Creek",1703000306,"Toppenish Creek",17030003,"Lower Yakima",46.2735344591449,-120.903102469346
170300030605,"Mill Creek-Toppenish Creek",1703000306,"Toppenish Creek",17030003,"Lower Yakima",46.3059491072238,-120.737618606279
170300030606,"Mud Lake-Toppenish Creek",1703000306,"Toppenish Creek",17030003,"Lower Yakima",46.3179987576375,-120.620768541608
170300030607,"Snake Creek-Toppenish Creek",1703000306,"Toppenish Creek",17030003,"Lower Yakima",46.3113611502535,-120.409786921926
170300030701,"Headwaters Status Creek",1703000307,"Upper Status Creek",17030003,"Lower Yakima",46.040137448028,-120.671195895601
170300030702,"Bull Creek-Status Creek",1703000307,"Upper Status Creek",17030003,"Lower Yakima",46.0378370515766,-120.52698823054
170300030703,"Spring Creek",1703000307,"Upper Status Creek",17030003,"Lower Yakima",46.1375304914681,-120.733885964068
170300030704,"Upper Logy Creek",1703000307,"Upper Status Creek",17030003,"Lower Yakima",46.0880998269825,-120.740280735662
170300030705,"Lower Logy Creek",1703000307,"Upper Status Creek",17030003,"Lower Yakima",46.1841218440045,-120.552956857884
170300030706,"Lizzy Canyon-Status Creek",1703000307,"Upper Status Creek",17030003,"Lower Yakima",46.125481302519,-120.496849712934
170300030801,"Upper North Fork Dry Creek",1703000308,"Lower Status Creek",17030003,"Lower Yakima",46.1738620719587,-120.839172862483
170300030802,"Middle North Fork Dry Creek",1703000308,"Lower Status Creek",17030003,"Lower Yakima",46.2124471371238,-120.690400092311
170300030803,"Lower North Fork Dry Creek",1703000308,"Lower Status Creek",17030003,"Lower Yakima",46.2587662000029,-120.521571160481
170300030804,"Poisel Butte-Status Creek",1703000308,"Lower Status Creek",17030003,"Lower Yakima",46.1784426862378,-120.419803818812
170300030805,"Upper Mule Dry Creek",1703000308,"Lower Status Creek",17030003,"Lower Yakima",46.074340184032,-120.346997782289
170300030806,"Lower Mule Dry Creek",1703000308,"Lower Status Creek",17030003,"Lower Yakima",46.1610375174118,-120.325609780487
170300030807,"Status Creek",1703000308,"Lower Status Creek",17030003,"Lower Yakima",46.2547609952195,-120.309848935176
170300030906,"Sulphur Creek Wasteway",1703000309,"Sunnyside-Sulphur Creek",17030003,"Lower Yakima",46.3384765556073,-119.955203558133
170300031002,"Coulee Drain-Yakima River",1703000310,"Spring Creek-Yakima River",17030003,"Lower Yakima",46.2002542522367,-120.160288346825
170300031003,"Horseshoe Lake-Yakima River",1703000310,"Spring Creek-Yakima River",17030003,"Lower Yakima",46.1985436004561,-120.062170259672
170300031004,"Byron Ponds-Yakima River",1703000310,"Spring Creek-Yakima River",17030003,"Lower Yakima",46.2064279355328,-119.928196570248
170300031005,"Spring Creek",1703000310,"Spring Creek-Yakima River",17030003,"Lower Yakima",46.3212309723177,-119.751664442234
170300031006,"Snipes Creek",1703000310,"Spring Creek-Yakima River",17030003,"Lower Yakima",46.3419536369746,-119.686863584635
170300031007,"City of Prosser-Yakima River",1703000310,"Spring Creek-Yakima River",17030003,"Lower Yakima",46.2161249137513,-119.795316093384
170300031101,"Headwaters Cold Creek",1703000311,"Dry Creek-Cold Creek",17030003,"Lower Yakima",46.595298262661,-119.922934138884
170300031103,"Upper Dry Creek",1703000311,"Dry Creek-Cold Creek",17030003,"Lower Yakima",46.5232171081521,-119.920965689838
170300031108,"Lower Cold Creek",1703000311,"Dry Creek-Cold Creek",17030003,"Lower Yakima",46.4591236481899,-119.518270254094
170300031109,"Cold Creek",1703000311,"Dry Creek-Cold Creek",17030003,"Lower Yakima",46.4063342302331,-119.475978786202
170300031201,"Corral Creek",1703000312,"Corral Creek-Yakima River",17030003,"Lower Yakima",46.3567100713366,-119.583095192011
170300031202,"Badlands Lakes-Yakima River",1703000312,"Corral Creek-Yakima River",17030003,"Lower Yakima",46.2855555881409,-119.614309113423
170300031203,"Webber Canyon-Yakima River",1703000312,"Corral Creek-Yakima River",17030003,"Lower Yakima",46.2451820552639,-119.450111131358
170300031204,"Coyote Canyon",1703000312,"Corral Creek-Yakima River",17030003,"Lower Yakima",46.1643796141552,-119.291546697568
170300031205,"Yakima River",1703000312,"Corral Creek-Yakima River",17030003,"Lower Yakima",46.3137638741521,-119.380269660112
170502010705,"Hells Canyon Dam-Snake River",1705020107,"Indian Creek-Snake River",17050201,"Brownlee Reservoir",45.1986826169596,-116.723458900233
170601010101,"Deep Creek",1706010101,"Granite Creek-Snake River",17060101,"Hells Canyon",45.2022503145321,-116.628051463002
170601010102,"Butte Creek-Snake River",1706010101,"Granite Creek-Snake River",17060101,"Hells Canyon",45.2943001410385,-116.694383971185
170601010103,"Granite Creek",1706010101,"Granite Creek-Snake River",17060101,"Hells Canyon",45.284886905517,-116.600329264574
170601010104,"Saddle Creek",1706010101,"Granite Creek-Snake River",17060101,"Hells Canyon",45.3901963186094,-116.689093192069
170601010105,"Sheep Creek",1706010101,"Granite Creek-Snake River",17060101,"Hells Canyon",45.4240000956849,-116.510936363382
170601010106,"Sluice Bar-Snake River",1706010101,"Granite Creek-Snake River",17060101,"Hells Canyon",45.4114514978985,-116.608314073582
170601010201,"Sand Creek-Snake River",1706010102,"Getta Creek-Snake River",17060101,"Hells Canyon",45.5039415610287,-116.548741750685
170601010202,"Temperance Creek",1706010102,"Getta Creek-Snake River",17060101,"Hells Canyon",45.5321436261615,-116.602255221713
170601010203,"Salt Creek-Snake River",1706010102,"Getta Creek-Snake River",17060101,"Hells Canyon",45.5578241028592,-116.502607102984
170601010204,"Corral Creek-Snake River",1706010102,"Getta Creek-Snake River",17060101,"Hells Canyon",45.5899027017649,-116.449997980956
170601010205,"Kurry Creek-Snake River",1706010102,"Getta Creek-Snake River",17060101,"Hells Canyon",45.6429889145973,-116.440025193883
170601010206,"Big Canyon Creek-Snake River",1706010102,"Getta Creek-Snake River",17060101,"Hells Canyon",45.6776694786046,-116.486672714548
170601010207,"Getta Creek",1706010102,"Getta Creek-Snake River",17060101,"Hells Canyon",45.7544576664037,-116.473911281907
170601010208,"Sommers Creek-Snake River",1706010102,"Getta Creek-Snake River",17060101,"Hells Canyon",45.6936733858072,-116.540539261453
170601010301,"Wolf Creek",1706010103,"Wolf Creek-Snake River",17060101,"Hells Canyon",45.8432228345232,-116.524009822194
170601010302,"Dry Creek-Snake River",1706010103,"Wolf Creek-Snake River",17060101,"Hells Canyon",45.7907885876057,-116.604864197028
170601010303,"Deep Creek",1706010103,"Wolf Creek-Snake River",17060101,"Hells Canyon",45.7075909334997,-116.623972348334
170601010304,"Divide Creek",1706010103,"Wolf Creek-Snake River",17060101,"Hells Canyon",45.8721640363586,-116.643362387375
170601010305,"Dug Bar-Snake River",1706010103,"Wolf Creek-Snake River",17060101,"Hells Canyon",45.8113147626564,-116.695253681577
170601010306,"Eureka Bar-Snake River",1706010103,"Wolf Creek-Snake River",17060101,"Hells Canyon",45.8229576419285,-116.795599415978
170601020101,"North Fork Imnaha River",1706010201,"Upper Imnaha River",17060102,"Imnaha",45.1482035582452,-117.18500091345
170601020102,"South Fork Imnaha River",1706010201,"Upper Imnaha River",17060102,"Imnaha",45.0986903719013,-117.21941764731
170601020103,"Rock Creek-Imnaha River",1706010201,"Upper Imnaha River",17060102,"Imnaha",45.0999659130312,-117.083083889625
170601020104,"Dry Creek-Imnaha River",1706010201,"Upper Imnaha River",17060102,"Imnaha",45.1304931660167,-116.912329212384
170601020105,"Gumboot Creek",1706010201,"Upper Imnaha River",17060102,"Imnaha",45.1662408977469,-116.945564438336
170601020106,"Crazyman Creek-Imnaha River",1706010201,"Upper Imnaha River",17060102,"Imnaha",45.2031423866744,-116.840911481345
170601020201,"Summit Creek-Imnaha River",1706010202,"Middle Imnaha River",17060102,"Imnaha",45.270115225774,-116.797579725634
170601020202,"Upper Grouse Creek",1706010202,"Middle Imnaha River",17060102,"Imnaha",45.2342104526205,-116.941262054379
170601020203,"Lower Grouse Creek",1706010202,"Middle Imnaha River",17060102,"Imnaha",45.288835090971,-116.866961340943
170601020204,"Freezeout Creek",1706010202,"Middle Imnaha River",17060102,"Imnaha",45.35797824452,-116.751924666251
170601020205,"Chalk Creek-Imnaha River",1706010202,"Middle Imnaha River",17060102,"Imnaha",45.3639360446411,-116.80523050938
170601020206,"Deer Creek-Imnaha River",1706010202,"Middle Imnaha River",17060102,"Imnaha",45.4817717142698,-116.788558168785
170601020301,"Salt Creek-Big Sheep Creek",1706010203,"Upper Big Sheep Creek",17060102,"Imnaha",45.1824513035769,-117.105105103636
170601020302,"Lick Creek",1706010203,"Upper Big Sheep Creek",17060102,"Imnaha",45.149959533894,-117.052052453146
170601020303,"Tyee Creek-Big Sheep Creek",1706010203,"Upper Big Sheep Creek",17060102,"Imnaha",45.2337469354204,-117.000909841055
170601020304,"Carrol Creek-Big Sheep Creek",1706010203,"Upper Big Sheep Creek",17060102,"Imnaha",45.2938956968366,-117.016021724234
170601020305,"Marr Creek-Big Sheep Creek",1706010203,"Upper Big Sheep Creek",17060102,"Imnaha",45.3379579792303,-116.907436344794
170601020306,"Steer Creek-Big Sheep Creek",1706010203,"Upper Big Sheep Creek",17060102,"Imnaha",45.4380512183201,-116.852729877304
170601020401,"Upper Little Sheep Creek",1706010204,"Lower Big Sheep Creek",17060102,"Imnaha",45.2491217891216,-117.114090210739
170601020402,"Middle Little Sheep Creek",1706010204,"Lower Big Sheep Creek",17060102,"Imnaha",45.3795439478874,-117.034215547288
170601020403,"Lightning Creek",1706010204,"Lower Big Sheep Creek",17060102,"Imnaha",45.4816142154333,-117.030047335925
170601020404,"Bear Gulch",1706010204,"Lower Big Sheep Creek",17060102,"Imnaha",45.4271343672745,-116.916041829075
170601020405,"Upper Camp Creek",1706010204,"Lower Big Sheep Creek",17060102,"Imnaha",45.5858153951022,-116.963750215846
170601020406,"Lower Camp Creek",1706010204,"Lower Big Sheep Creek",17060102,"Imnaha",45.5759874706186,-116.905971504692
170601020407,"Lower Little Sheep Creek-Big Sheep Creek",1706010204,"Lower Big Sheep Creek",17060102,"Imnaha",45.4791108947444,-116.930029198781
170601020501,"Bare Creek-Imnaha River",1706010205,"Lower Imnaha River",17060102,"Imnaha",45.6022513189489,-116.840580353628
170601020502,"Fence Creek-Imnaha River",1706010205,"Lower Imnaha River",17060102,"Imnaha",45.6633131270328,-116.840163604787
170601020503,"Upper Horse Creek",1706010205,"Lower Imnaha River",17060102,"Imnaha",45.5203342818699,-116.731771348188
170601020504,"Lower Horse Creek",1706010205,"Lower Imnaha River",17060102,"Imnaha",45.6162619927695,-116.769931240094
170601020505,"Upper Lightning Creek",1706010205,"Lower Imnaha River",17060102,"Imnaha",45.5281793824706,-116.690035125227
170601020506,"Sleepy Creek",1706010205,"Lower Imnaha River",17060102,"Imnaha",45.5862433280325,-116.671209275687
170601020507,"Lower Lightning Creek",1706010205,"Lower Imnaha River",17060102,"Imnaha",45.6901787429433,-116.721119548877
170601020508,"Upper Cow Creek",1706010205,"Lower Imnaha River",17060102,"Imnaha",45.6108630990074,-116.625609216276
170601020509,"Lower Cow Creek",1706010205,"Lower Imnaha River",17060102,"Imnaha",45.7129337856749,-116.685944230466
170601020510,"Thorn Creek-Imnaha River",1706010205,"Lower Imnaha River",17060102,"Imnaha",45.7479216096106,-116.786125080883
170601030101,"Cherry Creek",1706010301,"Cherry Creek-Snake River",17060103,"Lower Snake-Asotin",45.8217975787846,-116.844535854443
170601030102,"Cook Creek",1706010301,"Cherry Creek-Snake River",17060103,"Lower Snake-Asotin",45.8554067230219,-116.903042662311
170601030103,"Jim Creek-Snake River",1706010301,"Cherry Creek-Snake River",17060103,"Lower Snake-Asotin",45.919552853596,-116.843964623091
170601030104,"Cache Creek-Snake River",1706010301,"Cherry Creek-Snake River",17060103,"Lower Snake-Asotin",45.977961487706,-116.894739697188
170601030105,"Corral Creek-Snake River",1706010301,"Cherry Creek-Snake River",17060103,"Lower Snake-Asotin",46.0442855628438,-116.918315006736
170601030201,"North Fork Asotin Creek",1706010302,"George Creek-Asotin Creek",17060103,"Lower Snake-Asotin",46.192410516225,-117.447932442404
170601030202,"Lick Creek",1706010302,"George Creek-Asotin Creek",17060103,"Lower Snake-Asotin",46.2511322059422,-117.400389863681
170601030203,"South Fork Asotin Creek",1706010302,"George Creek-Asotin Creek",17060103,"Lower Snake-Asotin",46.1861485541749,-117.339017759213
170601030204,"Charley Creek",1706010302,"George Creek-Asotin Creek",17060103,"Lower Snake-Asotin",46.2598625737155,-117.447361988067
170601030205,"Kearney Gulch-Asotin Creek",1706010302,"George Creek-Asotin Creek",17060103,"Lower Snake-Asotin",46.3090267683149,-117.274530969361
170601030206,"Upper George Creek",1706010302,"George Creek-Asotin Creek",17060103,"Lower Snake-Asotin",46.1385077124419,-117.260959330376
170601030207,"Pintler Creek",1706010302,"George Creek-Asotin Creek",17060103,"Lower Snake-Asotin",46.2129521146906,-117.118906052474
170601030208,"Lower George Creek",1706010302,"George Creek-Asotin Creek",17060103,"Lower Snake-Asotin",46.2413028175368,-117.204527070779
170601030209,"Asotin Creek",1706010302,"George Creek-Asotin Creek",17060103,"Lower Snake-Asotin",46.3394515781817,-117.124888145258
170601030301,"Captain John Creek",1706010303,"Captain John Creek-Snake River",17060103,"Lower Snake-Asotin",46.1438160884884,-116.857486108879
170601030302,"Couse Creek",1706010303,"Captain John Creek-Snake River",17060103,"Lower Snake-Asotin",46.1457564513233,-117.025461932789
170601030303,"Fisher Gulch-Snake River",1706010303,"Captain John Creek-Snake River",17060103,"Lower Snake-Asotin",46.1362881288995,-116.952685008566
170601030304,"Tenmile Creek",1706010303,"Captain John Creek-Snake River",17060103,"Lower Snake-Asotin",46.1850689162017,-117.06829348252
170601030305,"Redbird Creek-Snake River",1706010303,"Captain John Creek-Snake River",17060103,"Lower Snake-Asotin",46.2476107775154,-116.932973190698
170601030306,"Tammany Creek",1706010303,"Captain John Creek-Snake River",17060103,"Lower Snake-Asotin",46.3330070216015,-116.936638280651
170601030307,"Asotin Dam-Snake River",1706010303,"Captain John Creek-Snake River",17060103,"Lower Snake-Asotin",46.354741167035,-117.041616870314
170601040101,"Tanner Gulch-Grande Ronde River",1706010401,"Upper Grande Ronde River",17060104,"Upper Grande Ronde",45.01551496558,-118.265996262014
170601040102,"Limber Jim Creek",1706010401,"Upper Grande Ronde River",17060104,"Upper Grande Ronde",45.1042484694033,-118.284576439133
170601040103,"Meadowbrook Creek-Grande Ronde River",1706010401,"Upper Grande Ronde River",17060104,"Upper Grande Ronde",45.0441377236746,-118.32351694335
170601040104,"Chicken Creek",1706010401,"Upper Grande Ronde River",17060104,"Upper Grande Ronde",45.0241680813006,-118.390898997896
170601040105,"Sheep Creek",1706010401,"Upper Grande Ronde River",17060104,"Upper Grande Ronde",45.0463408242158,-118.437865157064
170601040106,"Little Fly Creek",1706010401,"Upper Grande Ronde River",17060104,"Upper Grande Ronde",45.0723823174814,-118.516047543277
170601040107,"Upper Fly Creek",1706010401,"Upper Grande Ronde River",17060104,"Upper Grande Ronde",45.1228649290392,-118.540659789656
170601040108,"Lower Fly Creek",1706010401,"Upper Grande Ronde River",17060104,"Upper Grande Ronde",45.1463334031233,-118.433327333023
170601040109,"Warm Springs Creek-Grande Ronde River",1706010401,"Upper Grande Ronde River",17060104,"Upper Grande Ronde",45.1699564440843,-118.366243760938
170601040201,"Upper Meadow Creek",1706010402,"Meadow Creek",17060104,"Upper Grande Ronde",45.2732666840572,-118.672236954969
170601040202,"Middle Meadow Creek",1706010402,"Meadow Creek",17060104,"Upper Grande Ronde",45.253431254029,-118.57440082493
170601040203,"Upper McCoy Creek",1706010402,"Meadow Creek",17060104,"Upper Grande Ronde",45.3388163087406,-118.556199018774
170601040204,"Lower McCoy Creek",1706010402,"Meadow Creek",17060104,"Upper Grande Ronde",45.2911249327015,-118.471256764125
170601040205,"Dark Canyon Creek",1706010402,"Meadow Creek",17060104,"Upper Grande Ronde",45.3360455053048,-118.409400906082
170601040206,"Lower Meadow Creek",1706010402,"Meadow Creek",17060104,"Upper Grande Ronde",45.2061699847254,-118.471548035836
170601040301,"Upper Beaver Creek",1706010403,"Beaver Creek-Grande Ronde River",17060104,"Upper Grande Ronde",45.1208659511778,-118.202139775161
170601040302,"Lower Beaver Creek",1706010403,"Beaver Creek-Grande Ronde River",17060104,"Upper Grande Ronde",45.2010925644803,-118.297961428898
170601040303,"Jordan Creek",1706010403,"Beaver Creek-Grande Ronde River",17060104,"Upper Grande Ronde",45.2280505114569,-118.235783847008
170601040304,"Spring Creek",1706010403,"Beaver Creek-Grande Ronde River",17060104,"Upper Grande Ronde",45.3594551847484,-118.347333210027
170601040305,"Whiskey Creek",1706010403,"Beaver Creek-Grande Ronde River",17060104,"Upper Grande Ronde",45.2403354677557,-118.204030510093
170601040306,"Rock Creek",1706010403,"Beaver Creek-Grande Ronde River",17060104,"Upper Grande Ronde",45.2405307455731,-118.142726068317
170601040307,"Coleman Ridge-Grande Ronde River",1706010403,"Beaver Creek-Grande Ronde River",17060104,"Upper Grande Ronde",45.3019962678226,-118.299609744491
170601040401,"Upper Five Points Creek",1706010404,"Five Points Creek-Grande Ronde River",17060104,"Upper Grande Ronde",45.4490090090035,-118.137669010455
170601040402,"Pelican Creek",1706010404,"Five Points Creek-Grande Ronde River",17060104,"Upper Grande Ronde",45.4045003353508,-118.313868004514
170601040403,"Lower Five Points Creek",1706010404,"Five Points Creek-Grande Ronde River",17060104,"Upper Grande Ronde",45.4070845047733,-118.207950727209
170601040404,"Haywire Canyon-Grande Ronde River",1706010404,"Five Points Creek-Grande Ronde River",17060104,"Upper Grande Ronde",45.3575502395997,-118.165605991753
170601040405,"Wright Slough-Grande Ronde River",1706010404,"Five Points Creek-Grande Ronde River",17060104,"Upper Grande Ronde",45.3776812838416,-118.031836231921
170601040501,"North Fork Catherine Creek",1706010405,"Upper Catherine Creek",17060104,"Upper Grande Ronde",45.1719562522437,-117.592630480422
170601040502,"South Fork Catherine Creek",1706010405,"Upper Catherine Creek",17060104,"Upper Grande Ronde",45.1056650675736,-117.561538980408
170601040503,"Milk Creek-Catherine Creek",1706010405,"Upper Catherine Creek",17060104,"Upper Grande Ronde",45.1089090329308,-117.693781249817
170601040504,"Little Catherine Creek",1706010405,"Upper Catherine Creek",17060104,"Upper Grande Ronde",45.1731207291088,-117.675756663679
170601040505,"Pyles Creek",1706010405,"Upper Catherine Creek",17060104,"Upper Grande Ronde",45.1593731953666,-117.856089117715
170601040506,"Little Creek",1706010405,"Upper Catherine Creek",17060104,"Upper Grande Ronde",45.2184815560534,-117.751723158282
170601040507,"Brinker Creek-Catherine Creek",1706010405,"Upper Catherine Creek",17060104,"Upper Grande Ronde",45.1810051808838,-117.814386411562
170601040601,"Upper Ladd Creek",1706010406,"Ladd Creek",17060104,"Upper Grande Ronde",45.1759403263206,-118.055153963119
170601040602,"East Fork Ladd Creek",1706010406,"Ladd Creek",17060104,"Upper Grande Ronde",45.1853074829128,-117.973634726069
170601040603,"Gekeler Slough",1706010406,"Ladd Creek",17060104,"Upper Grande Ronde",45.2971197884223,-118.068206098317
170601040604,"Lower Ladd Creek",1706010406,"Ladd Creek",17060104,"Upper Grande Ronde",45.2450496245912,-117.995985396296
170601040702,"Mill Creek",1706010407,"Lower Catherine Creek",17060104,"Upper Grande Ronde",45.2804322621542,-117.760108984315
170601040703,"Spring Slough",1706010407,"Lower Catherine Creek",17060104,"Upper Grande Ronde",45.3305318176274,-117.964848006548
170601040704,"McAllister Slough-Catherine Creek",1706010407,"Lower Catherine Creek",17060104,"Upper Grande Ronde",45.2872043987169,-117.934764933173
170601040705,"Conley Lake-Grande Ronde River",1706010407,"Lower Catherine Creek",17060104,"Upper Grande Ronde",45.3328879162284,-117.81645878033
170601040706,"Gasset Bluff-Grande Ronde River",1706010407,"Lower Catherine Creek",17060104,"Upper Grande Ronde",45.3891667829323,-117.87876693481
170601040801,"Dry Creek",1706010408,"Willow Creek",17060104,"Upper Grande Ronde",45.579475595056,-118.089178018288
170601040802,"Upper Willow Creek",1706010408,"Willow Creek",17060104,"Upper Grande Ronde",45.5079808256841,-118.073381613121
170601040803,"South Fork Willow Creek",1706010408,"Willow Creek",17060104,"Upper Grande Ronde",45.4469778262743,-118.048610747432
170601040804,"Lower Willow Creek",1706010408,"Willow Creek",17060104,"Upper Grande Ronde",45.514279475675,-117.990659847599
170601040901,"Upper Indian Creek",1706010409,"Indian Creek-Grande Ronde River",17060104,"Upper Grande Ronde",45.386641601744,-117.772061849079
170601040902,"Lower Indian Creek",1706010409,"Indian Creek-Grande Ronde River",17060104,"Upper Grande Ronde",45.4814804192742,-117.864671628327
170601040903,"North Fork Clark Creek",1706010409,"Indian Creek-Grande Ronde River",17060104,"Upper Grande Ronde",45.5259488959041,-117.78029320627
170601040904,"Clark Creek",1706010409,"Indian Creek-Grande Ronde River",17060104,"Upper Grande Ronde",45.4775101021941,-117.792103076281
170601040905,"Arnoldus Loop Reservoir-Grande Ronde River",1706010409,"Indian Creek-Grande Ronde River",17060104,"Upper Grande Ronde",45.4654368984908,-117.938382048123
170601041001,"Upper Lookingglass Creek",1706010410,"Lookingglass Creek",17060104,"Upper Grande Ronde",45.7882287732245,-118.021566552186
170601041002,"Little Lookingglass Creek",1706010410,"Lookingglass Creek",17060104,"Upper Grande Ronde",45.8153713929141,-117.919219723843
170601041003,"Jarboe Creek",1706010410,"Lookingglass Creek",17060104,"Upper Grande Ronde",45.8075109369928,-117.845165183883
170601041004,"Lower Lookingglass Creek",1706010410,"Lookingglass Creek",17060104,"Upper Grande Ronde",45.7449570125468,-117.941499453383
170601041101,"Phillips Creek",1706010411,"Cabin Creek-Grande Ronde River",17060104,"Upper Grande Ronde",45.621355175192,-118.03789098827
170601041102,"Gordon Creek",1706010411,"Cabin Creek-Grande Ronde River",17060104,"Upper Grande Ronde",45.6412135521755,-117.974872916322
170601041103,"Partridge Creek-Grande Ronde River",1706010411,"Cabin Creek-Grande Ronde River",17060104,"Upper Grande Ronde",45.6068245496326,-117.871507650217
170601041104,"Cabin Creek",1706010411,"Cabin Creek-Grande Ronde River",17060104,"Upper Grande Ronde",45.6939315265757,-117.935816974999
170601041105,"Rysdam Canyon",1706010411,"Cabin Creek-Grande Ronde River",17060104,"Upper Grande Ronde",45.6255469293106,-117.801095794094
170601041106,"Moses Creek-Grande Ronde River",1706010411,"Cabin Creek-Grande Ronde River",17060104,"Upper Grande Ronde",45.6922981425354,-117.832842797291
170601050101,"West Fork Wallowa River-Wallowa River",1706010501,"Upper Wallowa River",17060105,"Wallowa",45.2125339401869,-117.24210854536
170601050102,"Upper Prairie Creek",1706010501,"Upper Wallowa River",17060105,"Wallowa",45.3255155174316,-117.166784421
170601050103,"Upper North Fork Prairie Creek",1706010501,"Upper Wallowa River",17060105,"Wallowa",45.3850724537488,-117.114778905375
170601050104,"Lower North Fork Prairie Creek",1706010501,"Upper Wallowa River",17060105,"Wallowa",45.4280067208173,-117.19299957286
170601050105,"Lower Prairie Creek",1706010501,"Upper Wallowa River",17060105,"Wallowa",45.3791846047581,-117.220541669581
170601050106,"Hurricane Creek",1706010501,"Upper Wallowa River",17060105,"Wallowa",45.2804948949343,-117.307245835272
170601050107,"Trout Creek",1706010501,"Upper Wallowa River",17060105,"Wallowa",45.5011866773194,-117.269150413875
170601050108,"Spring Creek",1706010501,"Upper Wallowa River",17060105,"Wallowa",45.3791896856868,-117.3251541716
170601050109,"Wallowa Lake-Wallowa River",1706010501,"Upper Wallowa River",17060105,"Wallowa",45.3292394815871,-117.240985160883
170601050201,"Upper Lostine River",1706010502,"Lostine River",17060105,"Wallowa",45.2101416064993,-117.365759243399
170601050202,"Lake Creek-Lostine River",1706010502,"Lostine River",17060105,"Wallowa",45.2943241175589,-117.392682563732
170601050203,"Silver Creek-Lostine River",1706010502,"Lostine River",17060105,"Wallowa",45.3781555188391,-117.42019843147
170601050204,"Lower Lostine River",1706010502,"Lostine River",17060105,"Wallowa",45.4792505728505,-117.454541713144
170601050301,"Parsnip Creek",1706010503,"Middle Wallowa River",17060105,"Wallowa",45.5322121319379,-117.366642163671
170601050302,"Wade Gulch-Wallowa River",1706010503,"Middle Wallowa River",17060105,"Wallowa",45.4792797064055,-117.383470499073
170601050303,"Upper Whiskey Creek",1706010503,"Middle Wallowa River",17060105,"Wallowa",45.6011522433718,-117.338378159294
170601050304,"South Fork Whiskey Creek",1706010503,"Middle Wallowa River",17060105,"Wallowa",45.575164024383,-117.36826677016
170601050305,"Lower Whiskey Creek",1706010503,"Middle Wallowa River",17060105,"Wallowa",45.6031920033372,-117.464262819745
170601050306,"Spring Branch-Wallowa River",1706010503,"Middle Wallowa River",17060105,"Wallowa",45.5307197576848,-117.507244835718
170601050401,"Upper Bear Creek",1706010504,"Bear Creek",17060105,"Wallowa",45.3633023885333,-117.504324094225
170601050402,"Lower Bear Creek",1706010504,"Bear Creek",17060105,"Wallowa",45.4709113624541,-117.539406548893
170601050501,"Upper Minam River",1706010505,"Minam River",17060105,"Wallowa",45.1553071910732,-117.415762533285
170601050502,"China Cap Creek-Minam River",1706010505,"Minam River",17060105,"Wallowa",45.2143205045516,-117.511105091356
170601050503,"North Minam River",1706010505,"Minam River",17060105,"Wallowa",45.2640505838668,-117.466634340646
170601050504,"Chaparral Creek-Minam River",1706010505,"Minam River",17060105,"Wallowa",45.3329106112304,-117.586701540872
170601050505,"Little Minam River",1706010505,"Minam River",17060105,"Wallowa",45.2992244492724,-117.648245651051
170601050506,"Trout Creek-Minam River",1706010505,"Minam River",17060105,"Wallowa",45.4397477746208,-117.660137657213
170601050507,"Lower Minam River",1706010505,"Minam River",17060105,"Wallowa",45.5484978656739,-117.703144791854
170601050601,"Upper Dry Creek",1706010506,"Lower Wallowa River",17060105,"Wallowa",45.6660714167431,-117.514645024886
170601050602,"Lower Dry Creek",1706010506,"Lower Wallowa River",17060105,"Wallowa",45.6441117259603,-117.582357039503
170601050603,"Deer Creek",1706010506,"Lower Wallowa River",17060105,"Wallowa",45.519495924716,-117.625784848805
170601050604,"Water Canyon-Wallowa River",1706010506,"Lower Wallowa River",17060105,"Wallowa",45.5977050422711,-117.625389639952
170601050605,"Howard Creek",1706010506,"Lower Wallowa River",17060105,"Wallowa",45.6973411588592,-117.690615407515
170601050606,"Fisher Creek-Wallowa River",1706010506,"Lower Wallowa River",17060105,"Wallowa",45.6701916210726,-117.742251071674
170601060101,"Sheep Creek",1706010601,"Grossman Creek-Grande Ronde River",17060106,"Lower Grande Ronde",45.7970889853258,-117.812549963467
170601060102,"Clear Creek-Grande Ronde River",1706010601,"Grossman Creek-Grande Ronde River",17060106,"Lower Grande Ronde",45.7808589629564,-117.745555571325
170601060103,"Elbow Creek",1706010601,"Grossman Creek-Grande Ronde River",17060106,"Lower Grande Ronde",45.9174159508831,-117.669495254027
170601060104,"Grossman Creek",1706010601,"Grossman Creek-Grande Ronde River",17060106,"Lower Grande Ronde",45.79140308858,-117.640649445831
170601060105,"Bear Creek-Grande Ronde River",1706010601,"Grossman Creek-Grande Ronde River",17060106,"Lower Grande Ronde",45.867110341579,-117.731615741655
170601060106,"Slickfoot Creek-Grande Ronde River",1706010601,"Grossman Creek-Grande Ronde River",17060106,"Lower Grande Ronde",45.8708861866138,-117.571409325583
170601060201,"Wallupa Creek",1706010602,"Mud Creek-Grande Ronde River",17060106,"Lower Grande Ronde",45.7802610874916,-117.539440908285
170601060202,"Wildcat Creek",1706010602,"Mud Creek-Grande Ronde River",17060106,"Lower Grande Ronde",45.7752736795187,-117.488264194899
170601060203,"Upper Mud Creek",1706010602,"Mud Creek-Grande Ronde River",17060106,"Lower Grande Ronde",45.6935519331305,-117.311717855343
170601060204,"Middle Mud Creek",1706010602,"Mud Creek-Grande Ronde River",17060106,"Lower Grande Ronde",45.7240651540953,-117.374202641083
170601060205,"Tope Creek",1706010602,"Mud Creek-Grande Ronde River",17060106,"Lower Grande Ronde",45.6981689238204,-117.402959734334
170601060206,"Buck Creek",1706010602,"Mud Creek-Grande Ronde River",17060106,"Lower Grande Ronde",45.7942311662379,-117.352562006247
170601060207,"Lower Mud Creek",1706010602,"Mud Creek-Grande Ronde River",17060106,"Lower Grande Ronde",45.8396338146614,-117.43771061987
170601060208,"Upper Courtney Creek",1706010602,"Mud Creek-Grande Ronde River",17060106,"Lower Grande Ronde",45.8358821854051,-117.313733630669
170601060209,"Lower Courtney Creek",1706010602,"Mud Creek-Grande Ronde River",17060106,"Lower Grande Ronde",45.8951638697262,-117.383969312754
170601060210,"Wenaha River-Grande Ronde River",1706010602,"Mud Creek-Grande Ronde River",17060106,"Lower Grande Ronde",45.9146722188702,-117.461018467137
170601060301,"Upper South Fork Wenaha River",1706010603,"Wenaha River",17060106,"Lower Grande Ronde",45.9297405842945,-117.908088481669
170601060302,"Lower South Fork Wenaha River",1706010603,"Wenaha River",17060106,"Lower Grande Ronde",45.9153818946079,-117.821443120375
170601060303,"North Fork Wenaha River",1706010603,"Wenaha River",17060106,"Lower Grande Ronde",46.0149970635342,-117.867758622703
170601060304,"Beaver Creek",1706010603,"Wenaha River",17060106,"Lower Grande Ronde",46.0125361097895,-117.809054318945
170601060305,"Rock Creek-Wenaha River",1706010603,"Wenaha River",17060106,"Lower Grande Ronde",45.966156754184,-117.738364038031
170601060306,"Upper Butte Creek",1706010603,"Wenaha River",17060106,"Lower Grande Ronde",46.0809399899633,-117.747861702231
170601060307,"Lower Butte Creek",1706010603,"Wenaha River",17060106,"Lower Grande Ronde",46.0226075623945,-117.716151126598
170601060308,"Cross Canyon-Wenaha River",1706010603,"Wenaha River",17060106,"Lower Grande Ronde",45.9812076489202,-117.624795328804
170601060309,"Upper Crooked Creek",1706010603,"Wenaha River",17060106,"Lower Grande Ronde",46.0966105474043,-117.639342283594
170601060310,"First Creek",1706010603,"Wenaha River",17060106,"Lower Grande Ronde",46.0811070634211,-117.508700668441
170601060311,"Lower Crooked Creek",1706010603,"Wenaha River",17060106,"Lower Grande Ronde",46.0502250084407,-117.57481563549
170601060312,"Dry Gulch-Wenaha River",1706010603,"Wenaha River",17060106,"Lower Grande Ronde",45.9474459112647,-117.519465140156
170601060401,"Upper Chesnimnus Creek",1706010604,"Chesnimnus Creek",17060106,"Lower Grande Ronde",45.7205772575919,-116.910818327617
170601060402,"Devils Run Creek",1706010604,"Chesnimnus Creek",17060106,"Lower Grande Ronde",45.7821228757516,-116.931717756057
170601060403,"Middle Chesnimnus Creek",1706010604,"Chesnimnus Creek",17060106,"Lower Grande Ronde",45.7809931996822,-117.017249253992
170601060404,"Salmon Creek",1706010604,"Chesnimnus Creek",17060106,"Lower Grande Ronde",45.6221646527488,-117.061891951037
170601060405,"Alder Creek",1706010604,"Chesnimnus Creek",17060106,"Lower Grande Ronde",45.6791367507236,-116.987471132116
170601060406,"Pine Creek",1706010604,"Chesnimnus Creek",17060106,"Lower Grande Ronde",45.6154541155149,-117.024156234487
170601060407,"Peavine Creek",1706010604,"Chesnimnus Creek",17060106,"Lower Grande Ronde",45.786525051902,-117.084612824386
170601060408,"Lower Chesnimnus Creek",1706010604,"Chesnimnus Creek",17060106,"Lower Grande Ronde",45.6760033390065,-117.102987269487
170601060501,"Upper Crow Creek",1706010605,"Upper Joseph Creek",17060106,"Lower Grande Ronde",45.4896239884585,-117.105585857756
170601060502,"Elk Creek",1706010605,"Upper Joseph Creek",17060106,"Lower Grande Ronde",45.6416567950552,-117.18622779303
170601060503,"Lower Crow Creek",1706010605,"Upper Joseph Creek",17060106,"Lower Grande Ronde",45.6038458415937,-117.133822250356
170601060504,"Sumac Creek-Joseph Creek",1706010605,"Upper Joseph Creek",17060106,"Lower Grande Ronde",45.7502883664536,-117.163079182194
170601060505,"Upper Swamp Creek",1706010605,"Upper Joseph Creek",17060106,"Lower Grande Ronde",45.5090553588142,-117.190411056822
170601060506,"Davis Creek",1706010605,"Upper Joseph Creek",17060106,"Lower Grande Ronde",45.7012881826798,-117.26036392745
170601060507,"Lower Swamp Creek",1706010605,"Upper Joseph Creek",17060106,"Lower Grande Ronde",45.6765111630053,-117.228747424919
170601060508,"Cougar Creek-Joseph Creek",1706010605,"Upper Joseph Creek",17060106,"Lower Grande Ronde",45.8076108479336,-117.167135334111
170601060601,"Peavine Creek-Joseph Creek",1706010606,"Lower Joseph Creek",17060106,"Lower Grande Ronde",45.8592168824756,-117.205271165784
170601060602,"Rush Creek-Joseph Creek",1706010606,"Lower Joseph Creek",17060106,"Lower Grande Ronde",45.918207285756,-117.163652726123
170601060603,"Upper Cottonwood Creek",1706010606,"Lower Joseph Creek",17060106,"Lower Grande Ronde",45.8741948683867,-116.977168247365
170601060604,"Broady Creek",1706010606,"Lower Joseph Creek",17060106,"Lower Grande Ronde",45.8875243266778,-117.081269715013
170601060605,"Horse Creek",1706010606,"Lower Joseph Creek",17060106,"Lower Grande Ronde",45.9594465737942,-116.991814932457
170601060606,"Lower Cottonwood Creek",1706010606,"Lower Joseph Creek",17060106,"Lower Grande Ronde",45.9283919609822,-117.047104614174
170601060607,"Green Gulch-Joseph Creek",1706010606,"Lower Joseph Creek",17060106,"Lower Grande Ronde",46.0079362150347,-117.057398777424
170601060701,"Bear Creek-Hunt Spring",1706010607,"Lower Grande Ronde River",17060106,"Lower Grande Ronde",45.9964734643924,-117.488987734467
170601060702,"Grouse Creek",1706010607,"Lower Grande Ronde River",17060106,"Lower Grande Ronde",46.023387291259,-117.445632115885
170601060703,"Squaw Canyon-Grande Ronde River",1706010607,"Lower Grande Ronde River",17060106,"Lower Grande Ronde",45.9627802959676,-117.390367908966
170601060704,"Menatchee Creek",1706010607,"Lower Grande Ronde River",17060106,"Lower Grande Ronde",46.0796640214436,-117.405905425508
170601060705,"Bear Creek-West Bear Creek",1706010607,"Lower Grande Ronde River",17060106,"Lower Grande Ronde",45.9507027823238,-117.318491638127
170601060706,"Cottonwood Creek",1706010607,"Lower Grande Ronde River",17060106,"Lower Grande Ronde",46.081151608275,-117.306115033477
170601060707,"Buford Creek",1706010607,"Lower Grande Ronde River",17060106,"Lower Grande Ronde",45.9601551195493,-117.262544437197
170601060708,"Rattlesnake Creek",1706010607,"Lower Grande Ronde River",17060106,"Lower Grande Ronde",46.0826895424486,-117.222012347233
170601060709,"Cougar Creek-Grande Ronde River",1706010607,"Lower Grande Ronde River",17060106,"Lower Grande Ronde",46.0386375504112,-117.276985481328
170601060710,"Deer Creek",1706010607,"Lower Grande Ronde River",17060106,"Lower Grande Ronde",45.9772994421448,-117.198536464472
170601060711,"Shumaker Creek-Grande Ronde River",1706010607,"Lower Grande Ronde River",17060106,"Lower Grande Ronde",46.0512056654984,-117.090424127679
170601070101,"Upper Alpowa Creek",1706010701,"Alpowa Creek",17060107,"Lower Snake-Tucannon",46.3796056702595,-117.428692107135
170601070102,"Stember Creek",1706010701,"Alpowa Creek",17060107,"Lower Snake-Tucannon",46.4573881520207,-117.354073644088
170601070103,"Pow Wah Kee Gulch",1706010701,"Alpowa Creek",17060107,"Lower Snake-Tucannon",46.3527966153181,-117.377332357496
170601070104,"Page Creek",1706010701,"Alpowa Creek",17060107,"Lower Snake-Tucannon",46.3555035173442,-117.280963723377
170601070105,"Lower Alpowa Creek",1706010701,"Alpowa Creek",17060107,"Lower Snake-Tucannon",46.4348824839317,-117.272028292523
170601070201,"Dry Creek-Snake River",1706010702,"Steptoe Canyon-Snake River",17060107,"Lower Snake-Tucannon",46.4228844811248,-117.130010188307
170601070202,"Steptoe Canyon",1706010702,"Steptoe Canyon-Snake River",17060107,"Lower Snake-Tucannon",46.495716660522,-117.15951930514
170601070203,"Yakawawa Canyon-Snake River",1706010702,"Steptoe Canyon-Snake River",17060107,"Lower Snake-Tucannon",46.5321454363574,-117.248458585531
170601070204,"Castle Rock",1706010702,"Steptoe Canyon-Snake River",17060107,"Lower Snake-Tucannon",46.5452416195629,-117.338649177093
170601070205,"Wawawai Canyon-Snake River",1706010702,"Steptoe Canyon-Snake River",17060107,"Lower Snake-Tucannon",46.6275560623528,-117.362490046415
170601070301,"South Deadman Creek",1706010703,"Deadman Creek",17060107,"Lower Snake-Tucannon",46.5242134212949,-117.435253605634
170601070302,"North Deadman Creek",1706010703,"Deadman Creek",17060107,"Lower Snake-Tucannon",46.5916770338552,-117.479456174331
170601070303,"Lynn Gulch",1706010703,"Deadman Creek",17060107,"Lower Snake-Tucannon",46.6337868775589,-117.553009485334
170601070304,"Upper Meadow Creek",1706010703,"Deadman Creek",17060107,"Lower Snake-Tucannon",46.5166607539159,-117.534405798524
170601070305,"Lower Meadow Creek",1706010703,"Deadman Creek",17060107,"Lower Snake-Tucannon",46.5551666105942,-117.700929293683
170601070306,"Ping Gulch-Deadman Creek",1706010703,"Deadman Creek",17060107,"Lower Snake-Tucannon",46.6213661844397,-117.68045770024
170601070401,"Headwaters Alkali Flat Creek",1706010704,"Flat Creek",17060107,"Lower Snake-Tucannon",46.7969955587029,-117.601382554358
170601070402,"Mud Flat Creek",1706010704,"Flat Creek",17060107,"Lower Snake-Tucannon",46.7434203579268,-117.834920035948
170601070403,"Upper Alkali Flat Creek",1706010704,"Flat Creek",17060107,"Lower Snake-Tucannon",46.7144603973155,-117.793413285152
170601070404,"Rock Spring Creek",1706010704,"Flat Creek",17060107,"Lower Snake-Tucannon",46.6954876234073,-118.015845073646
170601070405,"Middle Alkali Flat Creek",1706010704,"Flat Creek",17060107,"Lower Snake-Tucannon",46.6679397977484,-117.95332425403
170601070406,"Lower Alkali Flat Creek",1706010704,"Flat Creek",17060107,"Lower Snake-Tucannon",46.6231881592367,-118.058384588105
170601070501,"Headwaters Pataha Creek",1706010705,"Pataha Creek",17060107,"Lower Snake-Tucannon",46.291413094046,-117.546191642191
170601070502,"Bihmaier Gulch-Pataha Creek",1706010705,"Pataha Creek",17060107,"Lower Snake-Tucannon",46.4282845607931,-117.499759715221
170601070503,"Benjamin Gulch-Pataha Creek",1706010705,"Pataha Creek",17060107,"Lower Snake-Tucannon",46.4560928504785,-117.60572271114
170601070504,"Linville Gulch",1706010705,"Pataha Creek",17060107,"Lower Snake-Tucannon",46.4021805692697,-117.632710881249
170601070505,"Chard Gulch-Pataha Creek",1706010705,"Pataha Creek",17060107,"Lower Snake-Tucannon",46.5030603909507,-117.797562697693
170601070506,"Dry Hollow-Pataha Creek",1706010705,"Pataha Creek",17060107,"Lower Snake-Tucannon",46.5085241605155,-117.907345160756
170601070601,"Headwaters Tucannon River",1706010706,"Upper Tucannon River",17060107,"Lower Snake-Tucannon",46.1695558331723,-117.596179248456
170601070602,"Panjab Creek",1706010706,"Upper Tucannon River",17060107,"Lower Snake-Tucannon",46.1509452935936,-117.720225145101
170601070603,"Little Tucannon River-Tucannon River",1706010706,"Upper Tucannon River",17060107,"Lower Snake-Tucannon",46.2499801952757,-117.69565968097
170601070604,"Cummings Creek",1706010706,"Upper Tucannon River",17060107,"Lower Snake-Tucannon",46.2714353779709,-117.618637802495
170601070605,"Tumalum Creek",1706010706,"Upper Tucannon River",17060107,"Lower Snake-Tucannon",46.3221305618468,-117.607658720026
170601070606,"Hartsock Grade-Tucannon River",1706010706,"Upper Tucannon River",17060107,"Lower Snake-Tucannon",46.3768451276097,-117.724832081726
170601070607,"Willow Creek",1706010706,"Upper Tucannon River",17060107,"Lower Snake-Tucannon",46.4279856030643,-117.902505299653
170601070608,"Town of Marengo-Tucannon River",1706010706,"Upper Tucannon River",17060107,"Lower Snake-Tucannon",46.4508804824679,-117.832401299254
170601070701,"Smith Hollow-Tucannon River",1706010707,"Lower Tucannon River",17060107,"Lower Snake-Tucannon",46.4509015669057,-118.011571833113
170601070702,"Kellog Creek",1706010707,"Lower Tucannon River",17060107,"Lower Snake-Tucannon",46.4413216913029,-118.108240942729
170601070703,"Town of Starbuck-Tucannon River",1706010707,"Lower Tucannon River",17060107,"Lower Snake-Tucannon",46.509684264698,-118.056634318297
170601070704,"Tucannon River",1706010707,"Lower Tucannon River",17060107,"Lower Snake-Tucannon",46.5186608726543,-118.1520336457
170601070801,"Almota Creek",1706010708,"Penawawa Creek-Snake River",17060107,"Lower Snake-Tucannon",46.7070777409672,-117.385332533555
170601070802,"Long Hollow-Snake River",1706010708,"Penawawa Creek-Snake River",17060107,"Lower Snake-Tucannon",46.6855868269856,-117.546694541502
170601070803,"Penawawa Creek",1706010708,"Penawawa Creek-Snake River",17060107,"Lower Snake-Tucannon",46.7528816171114,-117.546984836373
170601070804,"Town of Central Ferry-Snake River",1706010708,"Penawawa Creek-Snake River",17060107,"Lower Snake-Tucannon",46.663992575069,-117.789472901048
170601070805,"New York Creek",1706010708,"Penawawa Creek-Snake River",17060107,"Lower Snake-Tucannon",46.5508693069971,-117.76328786208
170601070806,"Dry Creek",1706010708,"Penawawa Creek-Snake River",17060107,"Lower Snake-Tucannon",46.5391519881549,-117.81128475203
170601070807,"Flagpole Creek-Snake River",1706010708,"Penawawa Creek-Snake River",17060107,"Lower Snake-Tucannon",46.5913042824578,-117.966015440806
170601070808,"Choke Cherry Spring-Snake River",1706010708,"Penawawa Creek-Snake River",17060107,"Lower Snake-Tucannon",46.572918197139,-118.139940992818
170601080804,"Holiday Coulee-Palouse River",1706010808,"Willow Creek-Palouse River",17060108,"Palouse",46.7156298759641,-118.222914040649
170601080805,"Winn Lake Canyon",1706010808,"Willow Creek-Palouse River",17060108,"Palouse",46.6982857893034,-118.130641030273
170601080806,"Palouse River",1706010808,"Willow Creek-Palouse River",17060108,"Palouse",46.630135283371,-118.161391385496
170601100101,"Fields Creek",1706011001,"Walker Creek-Snake River",17060110,"Lower Snake",46.4985074813368,-118.250790488821
170601100102,"Lyons Dam-Snake River",1706011001,"Walker Creek-Snake River",17060110,"Lower Snake",46.6094914100722,-118.321250129807
170601100103,"Skookum Creek-Snake River",1706011001,"Walker Creek-Snake River",17060110,"Lower Snake",46.5974124187548,-118.462181233551
170601100104,"Walker Well",1706011001,"Walker Creek-Snake River",17060110,"Lower Snake",46.4993928513285,-118.519605603102
170601100105,"Walker Creek",1706011001,"Walker Creek-Snake River",17060110,"Lower Snake",46.4605211054806,-118.482697742692
170601100106,"Burr Creek-Snake River",1706011001,"Walker Creek-Snake River",17060110,"Lower Snake",46.5097553016416,-118.606090738765
170601100401,"Lake Sacajawea-Snake River",1706011004,"McCoy Creek-Snake River",17060110,"Lower Snake",46.3979743812845,-118.678828108866
170601100402,"Rice Hill",1706011004,"McCoy Creek-Snake River",17060110,"Lower Snake",46.3377431222098,-118.649220898277
170601100403,"Dalton Lake-Snake River",1706011004,"McCoy Creek-Snake River",17060110,"Lower Snake",46.296927462643,-118.776402682361
170602010101,"Elk Creek",1706020101,"Valley Creek",17060201,"Upper Salmon",44.2497590941261,-115.12258833019
170602010102,"Upper Valley Creek",1706020101,"Valley Creek",17060201,"Upper Salmon",44.3660221062819,-115.009685315604
170602010103,"Middle Valley Creek",1706020101,"Valley Creek",17060201,"Upper Salmon",44.2981129776405,-115.072818705323
170602010104,"Stanley Creek",1706020101,"Valley Creek",17060201,"Upper Salmon",44.2766309208525,-114.969935046313
170602010105,"Stanley Lake Creek",1706020101,"Valley Creek",17060201,"Upper Salmon",44.2204325499604,-115.082932107966
170602010106,"Lower Valley Creek",1706020101,"Valley Creek",17060201,"Upper Salmon",44.1987267327439,-115.004350658768
170602010201,"Smiley Creek",1706020102,"Pole Creek-Salmon River",17060201,"Upper Salmon",43.8434729376296,-114.827073784398
170602010202,"Beaver Creek",1706020102,"Pole Creek-Salmon River",17060201,"Upper Salmon",43.8722740634276,-114.859556414579
170602010203,"Frenchman Creek-Salmon River",1706020102,"Pole Creek-Salmon River",17060201,"Upper Salmon",43.8524354557481,-114.760962162123
170602010204,"Pole Creek",1706020102,"Pole Creek-Salmon River",17060201,"Upper Salmon",43.9302852569795,-114.712989322892
170602010205,"Warm Creek-Salmon River",1706020102,"Pole Creek-Salmon River",17060201,"Upper Salmon",43.9661905701643,-114.786567904561
170602010301,"Upper Alturas Lake Creek",1706020103,"Alturas Lake Creek",17060201,"Upper Salmon",43.8905240517003,-114.927243944532
170602010302,"Lower Alturas Lake Creek",1706020103,"Alturas Lake Creek",17060201,"Upper Salmon",43.9605514607938,-114.896844254743
170602010401,"Champion Creek",1706020104,"Redfish Lake Creek-Salmon River",17060201,"Upper Salmon",44.0055227579799,-114.734471986571
170602010402,"Fourth of July Creek",1706020104,"Redfish Lake Creek-Salmon River",17060201,"Upper Salmon",44.0402894204033,-114.698094683749
170602010403,"Hell Roaring Creek-Salmon River",1706020104,"Redfish Lake Creek-Salmon River",17060201,"Upper Salmon",44.0147095420677,-114.909954847488
170602010404,"Huckleberry Creek",1706020104,"Redfish Lake Creek-Salmon River",17060201,"Upper Salmon",44.0632934825388,-114.912115219533
170602010405,"Fisher Creek-Salmon River",1706020104,"Redfish Lake Creek-Salmon River",17060201,"Upper Salmon",44.081136690909,-114.808537054648
170602010406,"Upper Redfish Lake Creek",1706020104,"Redfish Lake Creek-Salmon River",17060201,"Upper Salmon",44.053917839498,-114.998337483379
170602010407,"Lower Redfish Lake Creek",1706020104,"Redfish Lake Creek-Salmon River",17060201,"Upper Salmon",44.1233053794939,-114.962421132685
170602010408,"Cleveland Creek-Salmon River",1706020104,"Redfish Lake Creek-Salmon River",17060201,"Upper Salmon",44.1593241895596,-114.890245621097
170602010501,"Upper Yankee Fork",1706020105,"Yankee Fork",17060201,"Upper Salmon",44.4821093325854,-114.565388873288
170602010502,"Middle Yankee Fork",1706020105,"Yankee Fork",17060201,"Upper Salmon",44.4158892946519,-114.654728905716
170602010503,"Jordan Creek",1706020105,"Yankee Fork",17060201,"Upper Salmon",44.42827177013,-114.736951220231
170602010504,"West Fork Yankee Fork",1706020105,"Yankee Fork",17060201,"Upper Salmon",44.3997114668453,-114.824087300508
170602010505,"Lower Yankee Fork",1706020105,"Yankee Fork",17060201,"Upper Salmon",44.3272370148071,-114.705446789235
170602010601,"Big Casino Creek-Salmon River",1706020106,"Basin Creek-Salmon River",17060201,"Upper Salmon",44.2244884838047,-114.866715532464
170602010602,"Basin Creek",1706020106,"Basin Creek-Salmon River",17060201,"Upper Salmon",44.3206053829882,-114.885801192023
170602010603,"Rough Creek-Salmon River",1706020106,"Basin Creek-Salmon River",17060201,"Upper Salmon",44.2558413825509,-114.760485631558
170602010701,"Upper Warm Springs Creek",1706020107,"Warm Springs Creek",17060201,"Upper Salmon",44.1054432843207,-114.711459570876
170602010702,"Lower Warm Springs Creek",1706020107,"Warm Springs Creek",17060201,"Upper Salmon",44.1862802722438,-114.7124423974
170602010801,"Upper Squaw Creek",1706020108,"Squaw Creek",17060201,"Upper Salmon",44.4168713196319,-114.495941488144
170602010802,"Middle Squaw Creek",1706020108,"Squaw Creek",17060201,"Upper Salmon",44.3612033443457,-114.474257937803
170602010803,"Lower Squaw Creek",1706020108,"Squaw Creek",17060201,"Upper Salmon",44.3040278869526,-114.480502573887
170602010901,"Slate Creek",1706020109,"Slate Creek-Salmon River",17060201,"Upper Salmon",44.1756440320975,-114.607056098827
170602010902,"Peach Creek-Salmon River",1706020109,"Slate Creek-Salmon River",17060201,"Upper Salmon",44.2558667468602,-114.604384258999
170602010903,"Thompson Creek",1706020109,"Slate Creek-Salmon River",17060201,"Upper Salmon",44.3188900529844,-114.570411329857
170602010904,"French Creek-Salmon River",1706020109,"Slate Creek-Salmon River",17060201,"Upper Salmon",44.2223862337863,-114.49564692635
170602010905,"Kinnikinic Creek",1706020109,"Slate Creek-Salmon River",17060201,"Upper Salmon",44.3166290418369,-114.395342046969
170602010906,"Sullivan Creek-Salmon River",1706020109,"Slate Creek-Salmon River",17060201,"Upper Salmon",44.2347644195873,-114.394840023213
170602011001,"West Pass Creek",1706020110,"Upper East Fork Salmon River",17060201,"Upper Salmon",43.9411857593691,-114.445515359707
170602011002,"Bowery Creek",1706020110,"Upper East Fork Salmon River",17060201,"Upper Salmon",44.0207746841298,-114.410156447048
170602011003,"Germania Creek",1706020110,"Upper East Fork Salmon River",17060201,"Upper Salmon",43.9927994976455,-114.5946326852
170602011004,"Ibex Creek-East Fork Salmon River",1706020110,"Upper East Fork Salmon River",17060201,"Upper Salmon",43.9286579681632,-114.541360617616
170602011101,"Little Boulder Creek",1706020111,"Middle East Fork Salmon River",17060201,"Upper Salmon",44.0717637475768,-114.546279171904
170602011102,"Big Boulder Creek",1706020111,"Middle East Fork Salmon River",17060201,"Upper Salmon",44.1165449762475,-114.540504953426
170602011103,"Wickiup Creek-East Fork Salmon River",1706020111,"Middle East Fork Salmon River",17060201,"Upper Salmon",44.0863780250723,-114.447294588021
170602011104,"Big Lake Creek",1706020111,"Middle East Fork Salmon River",17060201,"Upper Salmon",44.1714078599012,-114.455049237168
170602011105,"Pine Creek-East Fork Salmon River",1706020111,"Middle East Fork Salmon River",17060201,"Upper Salmon",44.1216688768864,-114.348065902023
170602011201,"East Pass Creek",1706020112,"Herd Creek",17060201,"Upper Salmon",44.0175208380422,-114.32909063844
170602011202,"Upper Herd Creek",1706020112,"Herd Creek",17060201,"Upper Salmon",44.0120170607341,-114.234968021299
170602011203,"Lake Creek",1706020112,"Herd Creek",17060201,"Upper Salmon",44.0868705593024,-114.170215310702
170602011204,"Lower Herd Creek",1706020112,"Herd Creek",17060201,"Upper Salmon",44.1059762230207,-114.257815978645
170602011301,"Horse Basin Creek",1706020113,"Lower East Fork Salmon River",17060201,"Upper Salmon",44.202715393295,-114.112771726561
170602011302,"Road Creek",1706020113,"Lower East Fork Salmon River",17060201,"Upper Salmon",44.1555435677291,-114.155449418982
170602011303,"Spar Canyon",1706020113,"Lower East Fork Salmon River",17060201,"Upper Salmon",44.2600950993668,-114.188123207384
170602011304,"Dry Hollow-East Fork Salmon River",1706020113,"Lower East Fork Salmon River",17060201,"Upper Salmon",44.2054620809878,-114.291677048388
170602011401,"Bradshaw Creek-Salmon River",1706020114,"Bayhorse Creek-Salmon River",17060201,"Upper Salmon",44.3092939992774,-114.288896438711
170602011402,"Malm Creek-Salmon River",1706020114,"Bayhorse Creek-Salmon River",17060201,"Upper Salmon",44.354525100988,-114.243746164774
170602011403,"Bayhorse Creek",1706020114,"Bayhorse Creek-Salmon River",17060201,"Upper Salmon",44.3965500078532,-114.346504458908
170602011404,"Bradbury Creek-Salmon River",1706020114,"Bayhorse Creek-Salmon River",17060201,"Upper Salmon",44.4294897164174,-114.23305933188
170602011601,"Upper Challis Creek",1706020116,"Challis Creek",17060201,"Upper Salmon",44.5283337628908,-114.44982994728
170602011602,"Middle Challis Creek",1706020116,"Challis Creek",17060201,"Upper Salmon",44.5870164204327,-114.425778743985
170602011603,"Eddy Creek",1706020116,"Challis Creek",17060201,"Upper Salmon",44.6363826593842,-114.369880542698
170602011604,"Mill Creek",1706020116,"Challis Creek",17060201,"Upper Salmon",44.4966768472238,-114.386555436927
170602011605,"Darling Creek",1706020116,"Challis Creek",17060201,"Upper Salmon",44.6265644594964,-114.292347398841
170602011606,"Lower Challis Creek",1706020116,"Challis Creek",17060201,"Upper Salmon",44.5588423346399,-114.284958775127
170602011701,"Upper Morgan Creek",1706020117,"Morgan Creek",17060201,"Upper Salmon",44.8207343106978,-114.241316324088
170602011702,"Middle Morgan Creek",1706020117,"Morgan Creek",17060201,"Upper Salmon",44.7470141705332,-114.277423717671
170602011703,"West Fork Morgan Creek",1706020117,"Morgan Creek",17060201,"Upper Salmon",44.7073216514045,-114.337210434352
170602011704,"Lower Morgan Creek",1706020117,"Morgan Creek",17060201,"Upper Salmon",44.6587207205322,-114.222023664068
170602011801,"Leaton Gulch-Salmon River",1706020118,"Garden Creek-Salmon River",17060201,"Upper Salmon",44.4977350012365,-114.136888758324
170602011802,"Garden Creek",1706020118,"Garden Creek-Salmon River",17060201,"Upper Salmon",44.469818892264,-114.330465061614
170602011803,"Pennal Gulch-Salmon River",1706020118,"Garden Creek-Salmon River",17060201,"Upper Salmon",44.5694490675831,-114.165875926706
170602011804,"Ellis Creek",1706020118,"Garden Creek-Salmon River",17060201,"Upper Salmon",44.7073812863317,-114.150915835741
170602011805,"Spring Gulch-Salmon River",1706020118,"Garden Creek-Salmon River",17060201,"Upper Salmon",44.6518547161805,-114.114444934079
170602020101,"Headwaters Pahsimeroi River",1706020201,"Upper Pahsimeroi River",17060202,"Pahsimeroi",44.1461940523324,-113.722373349152
170602020102,"Long Creek",1706020201,"Upper Pahsimeroi River",17060202,"Pahsimeroi",44.2025556755027,-113.582466207575
170602020103,"Burnt Creek",1706020201,"Upper Pahsimeroi River",17060202,"Pahsimeroi",44.2002282673701,-113.640585133561
170602020201,"Donkey Creek-Goldburg Creek",1706020202,"Middle Pahsimeroi River",17060202,"Pahsimeroi",44.3416289087391,-113.55944159698
170602020202,"Mud Spring Canyon",1706020202,"Middle Pahsimeroi River",17060202,"Pahsimeroi",44.2763039074366,-113.715830576363
170602020203,"Christian Gulch",1706020202,"Middle Pahsimeroi River",17060202,"Pahsimeroi",44.3075414895471,-113.880223689251
170602020204,"Doublespring Creek",1706020202,"Middle Pahsimeroi River",17060202,"Pahsimeroi",44.2780108233662,-113.797503298557
